{"version": 0.6, "generator": "Overpass API 0.7.62.7 375dc00a", "osm3s": {"timestamp_osm_base": "2025-07-16T18:46:55Z", "copyright": "The data included in this document is from www.openstreetmap.org. The data is made available under ODbL."}, "elements": [{"type": "node", "id": 28390946, "lat": 57.0293319, "lon": 9.9925744, "tags": {"bench": "no", "bus": "yes", "highway": "bus_stop", "name": "Sj\u00f8rupstien", "network": "Nordjyllands Trafikselskab", "network:wikidata": "Q3246599", "network:wikipedia": "da:Nordjyllands Trafikselskab", "public_transport": "platform", "ref": "851983501", "ref_name": "Sj\u00f8rupstien (Humlebakken / Aalborg)", "shelter": "no", "wheelchair": "no"}}, {"type": "node", "id": 245466268, "lat": 57.0068477, "lon": 9.8174314, "tags": {"bench": "yes", "highway": "bus_stop", "name": "Frejlev svenstrupvej", "public_transport": "platform", "shelter": "yes"}}, {"type": "node", "id": 283787203, "lat": 56.9946927, "lon": 9.9851165}, {"type": "node", "id": 283788367, "lat": 56.9920299, "lon": 9.9846519}, {"type": "node", "id": 286724694, "lat": 56.9928806, "lon": 9.9895445, "tags": {"highway": "bus_stop", "name": "Zentavej", "network": "Nordjyllands Trafikselskab", "network:wikidata": "Q3246599", "public_transport": "platform", "ref": "851994501", "ref_name": "Zentavej (Lyngtoften / Gistrup)"}}, {"type": "node", "id": 286724800, "lat": 56.993075, "lon": 9.9894546, "tags": {"highway": "bus_stop", "name": "Zentavej", "network": "Nordjyllands Trafikselskab", "network:wikidata": "Q3246599", "public_transport": "platform", "ref": "851994502", "ref_name": "Zentavej (Lyngtoften / Gistrup)"}}, {"type": "node", "id": 287090301, "lat": 56.9972081, "lon": 9.987888}, {"type": "node", "id": 287091023, "lat": 56.9968095, "lon": 9.9863762}, {"type": "node", "id": 288331656, "lat": 57.0697514, "lon": 9.930451, "tags": {"highway": "bus_stop", "name": "J\u00f8rgen Berthelsens Vej", "network": "Nordjyllands Trafikselskab", "network:wikidata": "Q3246599", "public_transport": "platform", "ref": "851002202", "ref_name": "J\u00f8rgen Berthelsens Vej (Skansevej / Aalborg)"}}, {"type": "node", "id": 294788367, "lat": 57.0724232, "lon": 9.9212612, "tags": {"highway": "bus_stop", "name": "Strubjerg", "network": "Nordjyllands Trafikselskab", "network:wikidata": "Q3246599", "public_transport": "platform", "ref": "851012701", "ref_name": "Strubjerg (nord)"}}, {"type": "node", "id": 305265215, "lat": 57.0066392, "lon": 9.9938387, "tags": {"highway": "bus_stop", "name": "Broagerstien", "network": "Nordjyllands Trafikselskab", "network:wikidata": "Q3246599", "public_transport": "platform", "ref": "851008601", "ref_name": "Broagerstien (Hadsundvej / Gistrup)", "shelter": "no"}}, {"type": "node", "id": 305265252, "lat": 57.0066395, "lon": 9.9939972, "tags": {"highway": "bus_stop", "name": "Broagerstien", "network": "Nordjyllands Trafikselskab", "network:wikidata": "Q3246599", "public_transport": "platform", "ref": "851008602", "ref_name": "Broagerstien (Hadsundvej / Gistrup)", "shelter": "no"}}, {"type": "node", "id": 305265314, "lat": 57.0115177, "lon": 9.9945588, "tags": {"bench": "no", "bin": "yes", "bus": "yes", "highway": "bus_stop", "name": "Postg\u00e5rdsvej", "network": "Nordjyllands Trafikselskab", "network:wikidata": "Q3246599", "network:wikipedia": "da:Nordjyllands Trafikselskab", "public_transport": "platform", "ref": "851400801", "ref_name": "Postg\u00e5rdsvej (Alfred Nobels Vej / Aalborg)", "shelter": "no", "tactile_paving": "no", "wheelchair": "limited"}}, {"type": "node", "id": 313726805, "lat": 57.018499, "lon": 9.9879429, "tags": {"bus": "yes", "highway": "bus_stop", "name": "Regionshuset", "network": "Nordjyllands Trafikselskab", "network:wikidata": "Q3246599", "network:wikipedia": "da:Nordjyllands Trafikselskab", "public_transport": "platform", "ref": "851111601", "ref_name": "Regionshuset (Niels Bohrs Vej / Aalborg)"}}, {"type": "node", "id": 313733385, "lat": 57.0214895, "lon": 9.990915, "tags": {"bus": "yes", "highway": "bus_stop", "name": "Ven\u00f8sundvej", "network": "Nordjyllands Trafikselskab", "network:wikidata": "Q3246599", "network:wikipedia": "da:Nordjyllands Trafikselskab", "public_transport": "platform", "ref": "851983202", "ref_name": "Ven\u00f8sundvej"}}, {"type": "node", "id": 313735247, "lat": 57.0271619, "lon": 10.0007276, "tags": {"bench": "yes", "bin": "yes", "bus": "yes", "highway": "bus_stop", "name": "Trekanten", "network": "Nordjyllands Trafikselskab", "network:wikidata": "Q3246599", "network:wikipedia": "da:Nordjyllands Trafikselskab", "public_transport": "platform", "ref": "851060802", "ref_name": "Trekanten (Humlebakken / Aalborg)", "shelter": "yes"}}, {"type": "node", "id": 313736024, "lat": 57.0286521, "lon": 9.9965343, "tags": {"bench": "yes", "bin": "yes", "bus": "yes", "highway": "bus_stop", "name": "Sebbersundvej", "network": "Nordjyllands Trafikselskab", "network:wikidata": "Q3246599", "network:wikipedia": "da:Nordjyllands Trafikselskab", "public_transport": "platform", "ref": "851983602", "ref_name": "Sebbersundvej (Humlebakken / Aalborg)", "shelter": "yes", "tactile_paving": "no"}}, {"type": "node", "id": 313736666, "lat": 57.0297188, "lon": 9.9916623, "tags": {"bench": "yes", "bin": "yes", "bus": "yes", "highway": "bus_stop", "name": "Sj\u00f8rupstien", "network": "Nordjyllands Trafikselskab", "network:wikidata": "Q3246599", "network:wikipedia": "da:Nordjyllands Trafikselskab", "public_transport": "platform", "ref": "851983502", "ref_name": "Sj\u00f8rupstien (Humlebakken / Aalborg)", "shelter": "yes", "tactile_paving": "no", "wheelchair": "no"}}, {"type": "node", "id": 313736782, "lat": 57.0303038, "lon": 9.9795775, "tags": {"bench": "yes", "bin": "yes", "bus": "yes", "departures_board": "realtime", "highway": "bus_stop", "lit": "yes", "name": "Gjellerupstien Nord", "public_transport": "platform", "shelter": "yes", "tactile_paving": "no"}}, {"type": "node", "id": 313740079, "lat": 57.0300153, "lon": 9.9871664, "tags": {"bench": "yes", "bus": "yes", "highway": "bus_stop", "name": "Mejrupstien", "network": "Nordjyllands Trafikselskab", "network:wikidata": "Q3246599", "network:wikipedia": "da:Nordjyllands Trafikselskab", "public_transport": "platform", "ref": "851982902", "ref_name": "Mejrupstien (Humlebakken / Aalborg)", "shelter": "yes"}}, {"type": "node", "id": 313743919, "lat": 57.0336911, "lon": 9.953152, "tags": {"bench": "no", "bin": "yes", "bus": "yes", "highway": "bus_stop", "name": "Hadsundvej", "network": "Nordjyllands Trafikselskab", "network:wikidata": "Q3246599", "network:wikipedia": "da:Nordjyllands Trafikselskab", "public_transport": "platform", "ref": "851008202", "ref_name": "Hadsundvej (Humlebakken / Aalborg)", "shelter": "no", "tactile_paving": "no"}}, {"type": "node", "id": 313844580, "lat": 57.015566, "lon": 9.9334731, "tags": {"bench": "yes", "highway": "bus_stop", "name": "Juelsparken", "network": "Nordjyllands Trafikselskab", "network:wikidata": "Q3246599", "public_transport": "platform", "ref": "851962002", "ref_name": "Juelsparken (Byplanvej / Aalborg)", "shelter": "yes"}}, {"type": "node", "id": 335595977, "lat": 57.0707343, "lon": 9.9262428, "tags": {"highway": "bus_stop", "name": "L\u00f8vvangscentret", "network": "Nordjyllands Trafikselskab", "network:wikidata": "Q3246599", "public_transport": "platform", "ref": "851283101", "ref_name": "L\u00f8vvangscentret (Forbindelsevejen / Aalborg)"}}, {"type": "node", "id": 335801584, "lat": 57.0680859, "lon": 9.9089149, "tags": {"bus": "yes", "highway": "bus_stop", "name": "Skolevej", "network": "Nordjyllands Trafikselskab", "network:wikidata": "Q3246599", "public_transport": "platform", "ref": "851199901", "ref_name": "Skolevej (Lindholmsvej / N\u00f8rresundby)"}}, {"type": "node", "id": 336087115, "lat": 57.0730407, "lon": 9.9130199, "tags": {"bench": "yes", "bus": "yes", "highway": "bus_stop", "name": "Arkildsdal", "network": "Nordjyllands Trafikselskab", "network:wikidata": "Q3246599", "public_transport": "platform", "ref": "851922802", "ref_name": "Arkildsdal (Vikingevej / N\u00f8rresundby)", "shelter": "yes"}}, {"type": "node", "id": 358151412, "lat": 57.0248513, "lon": 10.0012956, "tags": {"bench": "yes", "bin": "yes", "bus": "yes", "highway": "bus_stop", "lit": "yes", "name": "Tornh\u00f8jskolen", "public_transport": "platform", "shelter": "yes", "tactile_paving": "no"}}, {"type": "node", "id": 472382024, "lat": 57.0219701, "lon": 9.9955657, "tags": {"bench": "yes", "bin": "yes", "bus": "yes", "highway": "bus_stop", "lit": "no", "name": "Tornh\u00f8jparken", "public_transport": "platform", "shelter": "yes", "tactile_paving": "no"}}, {"type": "node", "id": 539121782, "lat": 57.0297118, "lon": 9.9916093}, {"type": "node", "id": 539121788, "lat": 57.029669, "lon": 9.9919448}, {"type": "node", "id": 539139558, "lat": 57.0293333, "lon": 9.9925671}, {"type": "node", "id": 539139559, "lat": 57.0293936, "lon": 9.9921075}, {"type": "node", "id": 539139574, "lat": 57.0301891, "lon": 9.9795633, "tags": {"bench": "yes", "bin": "yes", "bus": "yes", "highway": "bus_stop", "lit": "yes", "name": "Gjellerupstien", "public_transport": "platform", "shelter": "yes", "tactile_paving": "no"}}, {"type": "node", "id": 539139575, "lat": 57.0297398, "lon": 9.987212, "tags": {"bench": "yes", "bin": "yes", "bus": "yes", "highway": "bus_stop", "name": "Mejrupstien", "network": "Nordjyllands Trafikselskab", "network:wikidata": "Q3246599", "network:wikipedia": "da:Nordjyllands Trafikselskab", "public_transport": "platform", "ref": "851982901", "ref_name": "Mejrupstien (Humlebakken / Aalborg)", "shelter": "yes"}}, {"type": "node", "id": 540984666, "lat": 57.0395282, "lon": 9.9571188, "tags": {"bench": "no", "bin": "no", "highway": "bus_stop", "lit": "yes", "name": "Langgade", "network": "Nordjyllands Trafikselskab", "network:wikidata": "Q3246599", "public_transport": "platform", "ref": "851971402", "ref_name": "Langgade (N\u00f8rre Tranders Vej / Aalborg)", "shelter": "no", "tactile_paving": "no"}}, {"type": "node", "id": 553493557, "lat": 57.0708793, "lon": 9.9213758, "tags": {"highway": "bus_stop", "name": "Strubjerg Syd", "network": "Nordjyllands Trafikselskab", "network:wikidata": "Q3246599", "public_transport": "platform", "ref": "851989802", "ref_name": "Strubjerg Syd (N\u00f8rresundby)"}}, {"type": "node", "id": 859997390, "lat": 57.0040231, "lon": 9.8794079, "tags": {"bench": "yes", "bin": "yes", "bus": "yes", "highway": "bus_stop", "lit": "yes", "name": "Bilka", "network": "Nordjyllands Trafikselskab", "network:wikidata": "Q3246599", "public_transport": "platform", "ref": "851071601", "ref_name": "Bilka (Hobrovej / Aalborg)", "shelter": "yes", "tactile_paving": "no", "wheelchair": "yes"}}, {"type": "node", "id": 861560249, "lat": 57.0076126, "lon": 9.8212916, "tags": {"bench": "no", "highway": "bus_stop", "name": "Straussvej", "public_transport": "platform", "ref": "8511002021", "shelter": "no"}}, {"type": "node", "id": 911299686, "lat": 57.0218726, "lon": 9.936583, "tags": {"bench": "yes", "bin": "yes", "highway": "bus_stop", "name": "C.P. Holb\u00f8lls Plads", "network": "Nordjyllands Trafikselskab", "network:wikidata": "Q3246599", "public_transport": "platform", "ref": "851802102", "ref_name": "C.P. Holb\u00f8lls Plads (Mylius Erichsens Vej/Aalborg)", "shelter": "yes", "tactile_paving": "no"}}, {"type": "node", "id": 911299697, "lat": 57.0185608, "lon": 9.9368843, "tags": {"bench": "yes", "highway": "bus_stop", "name": "Agervangen", "public_transport": "platform", "shelter": "yes"}}, {"type": "node", "id": 911299713, "lat": 57.0175082, "lon": 9.9338696, "tags": {"bench": "yes", "bin": "no", "check_date:shelter": "2024-07-19", "highway": "bus_stop", "lit": "no", "name": "Hellevangen", "network": "Nordjyllands Trafikselskab", "network:wikidata": "Q3246599", "public_transport": "platform", "ref": "851153201", "ref_name": "Hellevangen", "shelter": "yes", "tactile_paving": "no"}}, {"type": "node", "id": 911299745, "lat": 57.0213228, "lon": 9.9392581, "tags": {"bench": "yes", "bin": "yes", "highway": "bus_stop", "name": "Ivigtutvej", "network:wikidata": "Q3246599", "public_transport": "platform", "ref": "851961402", "shelter": "yes", "tactile_paving": "no"}}, {"type": "node", "id": 1015141579, "lat": 57.0342976, "lon": 9.994195, "tags": {"highway": "bus_stop", "name": "Fr\u00f8strupstien", "network": "Nordjyllands Trafikselskab", "network:wikidata": "Q3246599", "ref": "851981501", "ref_name": "Fr\u00f8strupstien (Smedeg\u00e5rdsvej / Aalborg)"}}, {"type": "node", "id": 1025444546, "lat": 57.0462367, "lon": 9.9191047, "tags": {"bench": "yes", "bin": "yes", "highway": "bus_stop", "lit": "yes", "name": "Boulevarden", "network": "Nordjyllands Trafikselskab", "network:wikidata": "Q3246599", "public_transport": "platform", "ref": "851007401", "ref_name": "Boulevarden", "shelter": "yes", "tactile_paving": "yes"}}, {"type": "node", "id": 1028766456, "lat": 57.0077009, "lon": 9.897602}, {"type": "node", "id": 1028766501, "lat": 57.0078417, "lon": 9.8975382}, {"type": "node", "id": 1028766525, "lat": 57.0077499, "lon": 9.8977717}, {"type": "node", "id": 1028767269, "lat": 57.0083288, "lon": 9.8985615}, {"type": "node", "id": 1028767428, "lat": 57.0079172, "lon": 9.8977205}, {"type": "node", "id": 1028767467, "lat": 57.0076587, "lon": 9.897679}, {"type": "node", "id": 1028767518, "lat": 57.0078264, "lon": 9.8975663}, {"type": "node", "id": 1028767535, "lat": 57.008039, "lon": 9.8983074}, {"type": "node", "id": 1028767760, "lat": 57.0083518, "lon": 9.8985193}, {"type": "node", "id": 1028768624, "lat": 57.007929, "lon": 9.8976988}, {"type": "node", "id": 1028768690, "lat": 57.0077775, "lon": 9.8974763}, {"type": "node", "id": 1028768748, "lat": 57.008251, "lon": 9.8987}, {"type": "node", "id": 1028769026, "lat": 57.008106, "lon": 9.8980674}, {"type": "node", "id": 1028769155, "lat": 57.0077291, "lon": 9.8978095}, {"type": "node", "id": 1028769430, "lat": 57.0082726, "lon": 9.8986606}, {"type": "node", "id": 1028769894, "lat": 57.0077578, "lon": 9.8975124}, {"type": "node", "id": 1032227350, "lat": 57.0324535, "lon": 10.0151208, "tags": {"bench": "yes", "bin": "yes", "highway": "bus_stop", "name": "Smedeg\u00e5rdsvej", "network": "Nordjyllands Trafikselskab", "network:wikidata": "Q3246599", "public_transport": "platform", "ref": "851985402", "ref_name": "Smedeg\u00e5rdsvej (Tranholmvej / Aalborg)", "shelter": "yes"}}, {"type": "node", "id": 1032373127, "lat": 57.0323729, "lon": 9.9669616, "tags": {"bench": "yes", "bin": "yes", "bus": "yes", "highway": "bus_stop", "lit": "yes", "name": "Elisevej", "network": "Nordjyllands Trafikselskab", "network:wikidata": "Q3246599", "network:wikipedia": "da:Nordjyllands Trafikselskab", "public_transport": "platform", "ref": "851009102", "ref_name": "Elisevej (Humlebakken / Aalborg)", "shelter": "yes", "tactile_paving": "no"}}, {"type": "node", "id": 1032373233, "lat": 57.033786, "lon": 9.9552594, "tags": {"bench": "yes", "bin": "yes", "bus": "yes", "highway": "bus_stop", "lit": "yes", "name": "Hadsundvej", "network": "Nordjyllands Trafikselskab", "network:wikidata": "Q3246599", "network:wikipedia": "da:Nordjyllands Trafikselskab", "public_transport": "platform", "ref": "851008201", "ref_name": "Hadsundvej (Humlebakken / Aalborg)", "shelter": "yes", "tactile_paving": "no"}}, {"type": "node", "id": 1032449486, "lat": 57.028082, "lon": 9.9972598, "tags": {"bench": "yes", "bin": "yes", "bus": "yes", "highway": "bus_stop", "lit": "yes", "name": "Sebbersundvej", "network": "Nordjyllands Trafikselskab", "network:wikidata": "Q3246599", "network:wikipedia": "da:Nordjyllands Trafikselskab", "public_transport": "platform", "ref": "851983601", "ref_name": "Sebbersundvej (Humlebakken / Aalborg)", "shelter": "yes", "tactile_paving": "no"}}, {"type": "node", "id": 1032474787, "lat": 57.034194, "lon": 10.0075744}, {"type": "node", "id": 1040024038, "lat": 57.0428206, "lon": 9.9171501}, {"type": "node", "id": 1064674157, "lat": 57.0439743, "lon": 9.9162826}, {"type": "node", "id": 1164763906, "lat": 57.0701623, "lon": 9.9428019, "tags": {"highway": "bus_stop", "name": "Anemonevej", "network": "Nordjyllands Trafikselskab", "network:wikidata": "Q3246599", "public_transport": "platform", "ref": "851913601", "ref_name": "Anemonevej (Forbindelsesvejen / N\u00f8rresundby)"}}, {"type": "node", "id": 1164763917, "lat": 57.070042, "lon": 9.9425117, "tags": {"highway": "bus_stop", "name": "Anemonevej", "network": "Nordjyllands Trafikselskab", "network:wikidata": "Q3246599", "public_transport": "platform", "ref": "851913602", "ref_name": "Anemonevej (Forbindelsesvejen / N\u00f8rresundby)"}}, {"type": "node", "id": 1166338758, "lat": 57.0749647, "lon": 9.9418175, "tags": {"highway": "bus_stop", "name": "N\u00f8rresundby Gymnasium", "network": "Nordjyllands Trafikselskab", "network:wikidata": "Q3246599", "public_transport": "platform", "ref": "851001801", "ref_name": "N\u00f8rresundby Gymnasium"}}, {"type": "node", "id": 1167107419, "lat": 57.0579278, "lon": 9.9221709, "tags": {"bus": "yes", "highway": "bus_stop", "name": "N\u00f8rresundby Torv", "network": "Nordjyllands Trafikselskab", "network:wikidata": "Q3246599", "network:wikipedia": "da:Nordjyllands Trafikselskab", "public_transport": "platform", "ref": "851101302", "ref_name": "N\u00f8rresundby Torv"}}, {"type": "node", "id": 1167107689, "lat": 57.0578638, "lon": 9.9224042, "tags": {"bus": "yes", "highway": "bus_stop", "name": "N\u00f8rresundby Torv", "network": "Nordjyllands Trafikselskab", "network:wikidata": "Q3246599", "network:wikipedia": "da:Nordjyllands Trafikselskab", "public_transport": "platform", "ref": "851101301", "ref_name": "N\u00f8rresundby Torv"}}, {"type": "node", "id": 1263356265, "lat": 56.6743384, "lon": 9.6778137, "tags": {"bench": "yes", "highway": "bus_stop", "public_transport": "platform", "shelter": "yes"}}, {"type": "node", "id": 1273266955, "lat": 56.6960865, "lon": 9.5545477, "tags": {"highway": "bus_stop", "public_transport": "platform"}}, {"type": "node", "id": 1273266960, "lat": 56.6748966, "lon": 9.676953, "tags": {"highway": "bus_stop", "public_transport": "platform", "shelter": "yes"}}, {"type": "node", "id": 1298645387, "lat": 57.0079493, "lon": 9.8977795}, {"type": "node", "id": 1298645392, "lat": 57.0078213, "lon": 9.897904}, {"type": "node", "id": 1329778076, "lat": 56.9956473, "lon": 9.887613, "tags": {"highway": "bus_stop", "name": "Finstrupg\u00e5rd", "network": "Nordjyllands Trafikselskab", "network:wikidata": "Q3246599", "public_transport": "platform", "ref": "851932402", "ref_name": "Finstrupg\u00e5rd (Dallvej / Dall)"}}, {"type": "node", "id": 1329778097, "lat": 56.9956114, "lon": 9.8873584, "tags": {"highway": "bus_stop", "name": "Finstrupg\u00e5rd", "network": "Nordjyllands Trafikselskab", "network:wikidata": "Q3246599", "public_transport": "platform", "ref": "851932401", "ref_name": "Finstrupg\u00e5rd (Dallvej / Dall)"}}, {"type": "node", "id": 1345647497, "lat": 57.0028985, "lon": 9.7771728, "tags": {"highway": "bus_stop", "name": "St. Restrup", "public_transport": "platform"}}, {"type": "node", "id": 1345647498, "lat": 57.0030509, "lon": 9.7773979, "tags": {"highway": "bus_stop", "name": "St. Restrup", "public_transport": "platform"}}, {"type": "node", "id": 1346899704, "lat": 56.9989508, "lon": 9.9267138, "tags": {"highway": "bus_stop", "name": "Kongsh\u00f8jvej", "public_transport": "platform", "shelter": "no", "tactile_paving": "no"}}, {"type": "node", "id": 1346899710, "lat": 56.9991284, "lon": 9.9269135, "tags": {"highway": "bus_stop", "name": "Kongsh\u00f8jvej", "public_transport": "platform", "shelter": "no", "tactile_paving": "no"}}, {"type": "node", "id": 1382722373, "lat": 56.9955303, "lon": 9.92918, "tags": {"bench": "no", "highway": "bus_stop", "name": "Agrih\u00f8j", "network": "Nordjyllands Trafikselskab", "network:wikidata": "Q3246599", "public_transport": "platform", "ref": "851964401", "ref_name": "Agrih\u00f8j (Vissevej / Aalborg)", "shelter": "no", "tactile_paving": "no"}}, {"type": "node", "id": 1382722375, "lat": 56.9955808, "lon": 9.9293358, "tags": {"bench": "yes", "highway": "bus_stop", "name": "Agrih\u00f8j", "network": "Nordjyllands Trafikselskab", "network:wikidata": "Q3246599", "public_transport": "platform", "ref": "851964402", "ref_name": "Agrih\u00f8j (Vissevej / Aalborg)", "shelter": "yes", "tactile_paving": "no"}}, {"type": "node", "id": 1406542059, "lat": 56.7686045, "lon": 9.8571439, "tags": {"highway": "bus_stop", "name": "M\u00f8llebygger S. Vej", "network": "Nordjyllands Trafikselskab", "network:wikidata": "Q3246599", "ref": "843102901", "ref_name": "M\u00f8llebygger S. Vej (Arden / Mariagerfjord Komm.)"}}, {"type": "node", "id": 1411230628, "lat": 57.0160279, "lon": 9.8945782, "tags": {"bench": "yes", "bin": "yes", "highway": "bus_stop", "lit": "yes", "name": "Sofiendal skole", "public_transport": "platform", "shelter": "yes", "tactile_paving": "no"}}, {"type": "node", "id": 1411230669, "lat": 57.0165474, "lon": 9.8957137, "tags": {"bench": "yes", "bin": "yes", "highway": "bus_stop", "lit": "yes", "name": "Sofiendal skole", "public_transport": "platform", "shelter": "yes", "tactile_paving": "no"}}, {"type": "node", "id": 1446289879, "lat": 57.0132101, "lon": 9.9680225, "tags": {"bench": "yes", "bin": "no", "bus": "yes", "highway": "bus_stop", "lit": "yes", "name": "Da Vinci Parken", "network": "Nordjyllands Trafikselskab", "network:wikidata": "Q3246599", "network:wikipedia": "da:Nordjyllands Trafikselskab", "public_transport": "platform", "ref": "851008302", "ref_name": "Da Vinci Parken (Alfred Nobels Vej / Aalborg)", "shelter": "yes", "tactile_paving": "no"}}, {"type": "node", "id": 1446289883, "lat": 57.0130588, "lon": 9.9680675, "tags": {"bench": "yes", "bin": "no", "bus": "yes", "highway": "bus_stop", "lit": "yes", "name": "Da Vinci Parken", "network": "Nordjyllands Trafikselskab", "network:wikidata": "Q3246599", "network:wikipedia": "da:Nordjyllands Trafikselskab", "public_transport": "platform", "ref": "851008301", "ref_name": "Da Vinci Parken (Alfred Nobels Vej / Aalborg)", "shelter": "no", "tactile_paving": "no"}}, {"type": "node", "id": 1475163569, "lat": 57.0099997, "lon": 9.8870692, "tags": {"bench": "yes", "bin": "yes", "bus": "yes", "highway": "bus_stop", "name": "Stationsmestervej", "network": "Nordjyllands Trafikselskab", "network:wikidata": "Q3246599", "public_transport": "platform", "ref": "851100601", "ref_name": "Stationsmestervej (Hobrovej / Aalborg)", "shelter": "no"}}, {"type": "node", "id": 1475163625, "lat": 57.010451, "lon": 9.8882089, "tags": {"bench": "yes", "bin": "yes", "bus": "yes", "highway": "bus_stop", "lit": "yes", "name": "Stationsmestervej", "network": "Nordjyllands Trafikselskab", "network:wikidata": "Q3246599", "public_transport": "platform", "ref": "851100602", "ref_name": "Stationsmestervej (Hobrovej / Aalborg)", "shelter": "yes", "tactile_paving": "no"}}, {"type": "node", "id": 1477653830, "lat": 57.0040521, "lon": 9.8800804, "tags": {"bench": "yes", "bin": "yes", "bus": "yes", "highway": "bus_stop", "lit": "yes", "name": "Bilka", "network": "Nordjyllands Trafikselskab", "network:wikidata": "Q3246599", "public_transport": "platform", "ref": "851071602", "ref_name": "Bilka (Hobrovej / Aalborg)", "shelter": "yes", "tactile_paving": "yes", "wheelchair": "yes"}}, {"type": "node", "id": 1477653833, "lat": 57.0076889, "lon": 9.884727, "tags": {"bench": "yes", "bin": "yes", "bus": "yes", "highway": "bus_stop", "lit": "yes", "name": "Dyrskuevej", "network": "Nordjyllands Trafikselskab", "network:wikidata": "Q3246599", "public_transport": "platform", "ref": "851110802", "ref_name": "Dyrskuevej (Hobrovej / Aalborg)", "shelter": "yes", "tactile_paving": "no"}}, {"type": "node", "id": 1477653839, "lat": 57.0131421, "lon": 9.9840566, "tags": {"bench": "yes", "bin": "no", "highway": "bus_stop", "lit": "no", "name": "Niels Jernes Vej", "public_transport": "platform", "shelter": "yes", "tactile_paving": "no", "wheelchair": "yes"}}, {"type": "node", "id": 1477653840, "lat": 57.0078039, "lon": 9.8843709, "tags": {"bench": "no", "bin": "yes", "bus": "yes", "highway": "bus_stop", "lit": "no", "name": "Dyrskuevej", "network": "Nordjyllands Trafikselskab", "network:wikidata": "Q3246599", "public_transport": "platform", "ref": "851110801", "ref_name": "Dyrskuevej (Hobrovej / Aalborg)", "shelter": "no", "tactile_paving": "no"}}, {"type": "node", "id": 1480332687, "lat": 57.0081182, "lon": 9.8974444, "tags": {"highway": "bus_stop", "name": "Skalborg Station", "public_transport": "platform"}}, {"type": "node", "id": 1480383172, "lat": 57.009359, "lon": 9.8794861, "tags": {"bench": "no", "highway": "bus_stop", "name": "Digtervejen", "network": "Nordjyllands Trafikselskab", "network:wikidata": "Q3246599", "public_transport": "platform", "ref": "851110501", "ref_name": "Digtervejen (Letvadvej / Aalborg)", "shelter": "no"}}, {"type": "node", "id": 1492488146, "lat": 57.0083156, "lon": 9.8976246, "tags": {"bench": "no", "highway": "bus_stop", "name": "Skalborg Station", "public_transport": "platform", "shelter": "no", "tactile_paving": "no"}}, {"type": "node", "id": 1495857362, "lat": 57.005364, "lon": 9.8824523, "tags": {"bench": "yes", "bus": "yes", "highway": "bus_stop", "name": "Dallvej", "network": "Nordjyllands Trafikselskab", "network:wikidata": "Q3246599", "public_transport": "platform", "ref": "851103901", "ref_name": "Dallvej", "shelter": "yes", "tactile_paving": "no"}}, {"type": "node", "id": 1495857372, "lat": 57.0054576, "lon": 9.882809, "tags": {"bench": "yes", "bus": "yes", "highway": "bus_stop", "name": "Dallvej", "network": "Nordjyllands Trafikselskab", "network:wikidata": "Q3246599", "public_transport": "platform", "ref": "851103902", "ref_name": "Dallvej", "shelter": "yes", "tactile_paving": "no"}}, {"type": "node", "id": 1566991118, "lat": 57.0059066, "lon": 9.8732458, "tags": {"bench": "yes", "bin": "yes", "highway": "bus_stop", "name": "Storcenteret", "network": "Nordjyllands Trafikselskab", "network:wikidata": "Q3246599", "public_transport": "platform", "ref": "851001102", "ref_name": "Storcenteret (Nibevej / Aalborg)", "shelter": "yes", "tactile_paving": "no"}}, {"type": "node", "id": 1566991121, "lat": 57.006178, "lon": 9.87464, "tags": {"bench": "no", "highway": "bus_stop", "name": "Storcenteret", "network": "Nordjyllands Trafikselskab", "network:wikidata": "Q3246599", "ref": "851001101", "ref_name": "Storcenteret (Nibevej / Aalborg)", "shelter": "no", "tactile_paving": "no"}}, {"type": "node", "id": 1584895631, "lat": 57.0117877, "lon": 9.994718, "tags": {"bench": "yes", "bin": "no", "bus": "yes", "highway": "bus_stop", "name": "Postg\u00e5rdsvej", "network": "Nordjyllands Trafikselskab", "network:wikidata": "Q3246599", "network:wikipedia": "da:Nordjyllands Trafikselskab", "public_transport": "platform", "ref": "851400802", "ref_name": "Postg\u00e5rdsvej (Alfred Nobels Vej / Aalborg)", "shelter": "yes", "tactile_paving": "no", "wheelchair": "limited"}}, {"type": "node", "id": 1591375391, "lat": 57.0421029, "lon": 9.9340053, "tags": {"bench": "yes", "bin": "yes", "highway": "bus_stop", "lit": "yes", "name": "Karolinelund", "network": "Nordjyllands Trafikselskab", "network:wikidata": "Q3246599", "public_transport": "platform", "ref": "851210401", "ref_name": "Karolinelund (Bornholmsgade / Aalborg)", "shelter": "yes", "tactile_paving": "yes", "wheelchair": "yes"}}, {"type": "node", "id": 1591375392, "lat": 57.0420972, "lon": 9.9341683, "tags": {"bench": "yes", "bin": "yes", "highway": "bus_stop", "name": "Karolinelund", "network": "Nordjyllands Trafikselskab", "network:wikidata": "Q3246599", "public_transport": "platform", "ref": "851210402", "ref_name": "Karolinelund (Bornholmsgade / Aalborg)", "shelter": "yes", "wheelchair": "yes"}}, {"type": "node", "id": 1687068573, "lat": 57.0148864, "lon": 9.9874084, "tags": {"bench": "no", "bin": "yes", "bus": "yes", "highway": "bus_stop", "lit": "yes", "name": "Mejrupstien", "network": "Nordjyllands Trafikselskab", "network:wikidata": "Q3246599", "network:wikipedia": "da:Nordjyllands Trafikselskab", "public_transport": "platform", "ref": "851992002", "ref_name": "Mejrupstien (Bertil Ohlins Vej / Aalborg)", "shelter": "yes", "tactile_paving": "no"}}, {"type": "node", "id": 1687068604, "lat": 57.0149251, "lon": 9.983422, "tags": {"bench": "no", "bin": "yes", "highway": "bus_stop", "lit": "yes", "name": "AAU Damstr\u00e6de", "network": "Nordjyllands Trafikselskab", "network:wikidata": "Q3246599", "public_transport": "platform", "ref": "851991602", "ref_name": "AAU Damstr\u00e6de (Bertil Ohlins Vej / Aalborg)", "shelter": "yes", "tactile_paving": "yes", "wheelchair": "yes"}}, {"type": "node", "id": 1687068627, "lat": 57.0147905, "lon": 9.9874303, "tags": {"bench": "no", "bin": "no", "bus": "yes", "highway": "bus_stop", "lit": "yes", "name": "Mejrupstien", "network": "Nordjyllands Trafikselskab", "network:wikidata": "Q3246599", "network:wikipedia": "da:Nordjyllands Trafikselskab", "public_transport": "platform", "ref": "851992001", "ref_name": "Mejrupstien (Bertil Ohlins Vej / Aalborg)", "shelter": "no", "tactile_paving": "no"}}, {"type": "node", "id": 1693124456, "lat": 57.0340059, "lon": 10.007659}, {"type": "node", "id": 1698785556, "lat": 57.0666718, "lon": 9.9046291, "tags": {"bench": "yes", "bus": "yes", "check_date:shelter": "2025-03-08", "highway": "bus_stop", "name": "Lindholm Station", "public_transport": "platform", "shelter": "yes", "tactile_paving": "yes"}}, {"type": "node", "id": 1698785560, "lat": 57.0668569, "lon": 9.904652, "tags": {"bench": "yes", "bin": "yes", "bus": "yes", "highway": "bus_stop", "name": "Lindholm Station", "public_transport": "platform", "shelter": "yes"}}, {"type": "node", "id": 1698785573, "lat": 57.0674087, "lon": 9.9049595, "tags": {"bench": "yes", "bin": "yes", "bus": "yes", "check_date:shelter": "2025-03-08", "highway": "bus_stop", "name": "Lindholm Station", "public_transport": "platform", "shelter": "yes"}}, {"type": "node", "id": 1709776825, "lat": 57.0383337, "lon": 9.9356616, "tags": {"bench": "yes", "highway": "bus_stop", "name": "Eternitten", "network": "Nordjyllands Trafikselskab", "network:wikidata": "Q3246599", "public_transport": "platform", "ref": "851008902", "ref_name": "Eternitten (Bornholmsgade / Aalborg)", "shelter": "yes", "wheelchair": "yes"}}, {"type": "node", "id": 1709776828, "lat": 57.0382428, "lon": 9.9355789, "tags": {"bench": "yes", "highway": "bus_stop", "name": "Eternitten", "network": "Nordjyllands Trafikselskab", "network:wikidata": "Q3246599", "public_transport": "platform", "ref": "851008901", "ref_name": "Eternitten (Bornholmsgade / Aalborg)", "shelter": "yes", "wheelchair": "yes"}}, {"type": "node", "id": 1709787503, "lat": 57.0268947, "lon": 9.9265554, "tags": {"bench": "no", "highway": "bus_stop", "name": "Frydendal", "network": "Nordjyllands Trafikselskab", "network:wikidata": "Q3246599", "public_transport": "platform", "ref": "851202804", "ref_name": "Frydendal (S\u00f8nderbro / Aalborg)", "shelter": "no"}}, {"type": "node", "id": 1709793320, "lat": 57.0240462, "lon": 9.9415946, "tags": {"bench": "yes", "bin": "yes", "bus": "yes", "highway": "bus_stop", "name": "Gr\u00f8nlands Torv", "network": "Nordjyllands Trafikselskab", "network:wikidata": "Q3246599", "network:wikipedia": "da:Nordjyllands Trafikselskab", "public_transport": "platform", "ref": "851102301", "ref_name": "Gr\u00f8nlands Torv (Sohng\u00e5rdsholmsvej / Aalborg)", "shelter": "yes"}}, {"type": "node", "id": 1709793326, "lat": 57.029526, "lon": 9.9444383}, {"type": "node", "id": 1709793351, "lat": 57.0288516, "lon": 9.9443241}, {"type": "node", "id": 1711223793, "lat": 57.0189695, "lon": 9.968408, "tags": {"bench": "yes", "bin": "yes", "bus": "yes", "highway": "bus_stop", "lit": "yes", "name": "Willy Brandts Vej", "network": "Nordjyllands Trafikselskab", "network:wikidata": "Q3246599", "network:wikipedia": "da:Nordjyllands Trafikselskab", "public_transport": "platform", "ref": "851007902", "ref_name": "Willy Brandts Vej (Einsteins Boulevard / Aalborg)", "shelter": "yes", "tactile_paving": "no", "wheelchair": "limited"}}, {"type": "node", "id": 1711223794, "lat": 57.0188286, "lon": 9.9680608, "tags": {"bench": "yes", "bin": "yes", "bus": "yes", "highway": "bus_stop", "lit": "yes", "name": "Willy Brandts Vej", "network": "Nordjyllands Trafikselskab", "network:wikidata": "Q3246599", "network:wikipedia": "da:Nordjyllands Trafikselskab", "public_transport": "platform", "ref": "851007901", "ref_name": "Willy Brandts Vej (Einsteins Boulevard / Aalborg)", "shelter": "yes", "tactile_paving": "no"}}, {"type": "node", "id": 1711225106, "lat": 57.0331805, "lon": 9.9426138}, {"type": "node", "id": 1711228273, "lat": 57.0509455, "lon": 9.9182848, "tags": {"bench": "no", "bin": "no", "bus": "yes", "highway": "bus_stop", "lit": "no", "name": "Jomfru Ane Gade", "network": "Nordjyllands Trafikselskab", "network:wikidata": "Q3246599", "network:wikipedia": "da:Nordjyllands Trafikselskab", "public_transport": "platform", "ref": "851002402", "ref_name": "Jomfru Ane Gade (Borgergade/ Aalborg)", "shelter": "no", "tactile_paving": "no"}}, {"type": "node", "id": 1711228275, "lat": 57.0509191, "lon": 9.9189571, "tags": {"bench": "yes", "bin": "yes", "bus": "yes", "covered": "yes", "highway": "bus_stop", "lit": "yes", "name": "Jomfru Ane Gade", "network": "Nordjyllands Trafikselskab", "network:wikidata": "Q3246599", "network:wikipedia": "da:Nordjyllands Trafikselskab", "public_transport": "platform", "ref": "851002401", "ref_name": "Jomfru Ane Gade (Borgergade/ Aalborg)", "tactile_paving": "yes"}}, {"type": "node", "id": 1711247301, "lat": 57.0425368, "lon": 9.9261603, "tags": {"bench": "yes", "bin": "yes", "bus": "yes", "highway": "bus_stop", "lit": "yes", "name": "Jyllandsgade", "network": "Nordjyllands Trafikselskab", "network:wikidata": "Q3246599", "network:wikipedia": "da:Nordjyllands Trafikselskab", "public_transport": "platform", "ref": "851012202", "ref_name": "Jyllandsgade (Aalborg Kommune)", "shelter": "yes", "tactile_paving": "yes", "wheelchair": "limited"}}, {"type": "node", "id": 1784465084, "lat": 56.6882986, "lon": 9.746374, "tags": {"highway": "bus_stop", "public_transport": "platform", "shelter": "no", "tactile_paving": "no"}}, {"type": "node", "id": 1784938588, "lat": 57.005917, "lon": 9.8112758, "tags": {"highway": "bus_stop", "name": "Frejlev Skole", "public_transport": "platform", "shelter": "no"}}, {"type": "node", "id": 1784938589, "lat": 57.0065596, "lon": 9.8161667, "tags": {"bench": "yes", "highway": "bus_stop", "name": "Frejlev svenstrupvej", "public_transport": "platform", "shelter": "yes", "wheelchair": "yes"}}, {"type": "node", "id": 1787574108, "lat": 57.0381313, "lon": 9.9096973, "tags": {"bench": "yes", "bin": "yes", "bus": "yes", "highway": "bus_stop", "name": "Sygehus Syd", "network": "Nordjyllands Trafikselskab", "network:wikidata": "Q3246599", "public_transport": "platform", "ref": "851300501", "ref_name": "Sygehus Syd (Hobrovej / Aalborg)", "shelter": "yes"}}, {"type": "node", "id": 1788601277, "lat": 56.9644546, "lon": 9.8189117, "tags": {"highway": "bus_stop", "name": "Ridemandsm\u00f8llevej ved Ericavej", "public_transport": "platform"}}, {"type": "node", "id": 1788601283, "lat": 56.9643524, "lon": 9.8182704, "tags": {"highway": "bus_stop", "name": "Ridemandsm\u00f8llevej ved Ericavej", "public_transport": "platform"}}, {"type": "node", "id": 1788607771, "lat": 56.9625005, "lon": 9.809472, "tags": {"bench": "no", "bus": "yes", "highway": "bus_stop", "name": "Godth\u00e5b skole", "network:wikidata": "Q3246599", "passenger_information_display": "no", "public_transport": "platform", "ref": "851001901", "shelter": "no"}}, {"type": "node", "id": 1788607772, "lat": 56.9628258, "lon": 9.8143887, "tags": {"bus": "yes", "highway": "bus_stop", "name": "Ridemandsm\u00f8llevej ved Engblommevej", "public_transport": "platform", "shelter": "yes"}}, {"type": "node", "id": 1788607773, "lat": 56.9666437, "lon": 9.8098134, "tags": {"bench": "no", "bin": "no", "check_date:bench": "2024-03-14", "covered": "no", "highway": "bus_stop", "lit": "no", "name": "Lille Volstrupvej", "public_transport": "platform", "shelter": "no", "tactile_paving": "no"}}, {"type": "node", "id": 1788607774, "lat": 56.9709918, "lon": 9.8097678, "tags": {"highway": "bus_stop", "name": "Oldstien", "public_transport": "platform"}}, {"type": "node", "id": 1788607776, "lat": 56.9622982, "lon": 9.8092953, "tags": {"bench": "yes", "bin": "no", "bus": "yes", "highway": "bus_stop", "name": "Godth\u00e5b skole", "network:wikidata": "Q3246599", "passenger_information_display": "no", "public_transport": "platform", "ref": "851001902", "shelter": "yes"}}, {"type": "node", "id": 1788607777, "lat": 56.9665457, "lon": 9.8097007, "tags": {"bench": "no", "bin": "no", "check_date:bench": "2022-05-27", "covered": "no", "highway": "bus_stop", "lit": "no", "name": "Lille Volstrupvej", "public_transport": "platform", "shelter": "no", "tactile_paving": "no"}}, {"type": "node", "id": 1788607778, "lat": 56.9629373, "lon": 9.8144119, "tags": {"bench": "no", "bus": "yes", "highway": "bus_stop", "name": "Ridemandsm\u00f8llevej ved Engblommevej", "public_transport": "platform", "shelter": "no"}}, {"type": "node", "id": 1788608885, "lat": 56.9632512, "lon": 9.8162385, "tags": {"highway": "bus_stop", "name": "Digesvalevej", "network": "Nordjyllands Trafikselskab", "network:wikidata": "Q3246599", "public_transport": "platform", "ref": "851932902", "ref_name": "Digesvalevej (Runesvinget / Godth\u00e5b)"}}, {"type": "node", "id": 1788632465, "lat": 56.9653298, "lon": 9.8218286, "tags": {"highway": "bus_stop", "name": "Zincksvej", "network": "Nordjyllands Trafikselskab", "network:wikidata": "Q3246599", "public_transport": "platform", "ref": "851931401", "ref_name": "Zincksvej (Ridemandsm\u00f8llevej / Svenstrup)"}}, {"type": "node", "id": 1791446929, "lat": 57.0167744, "lon": 9.9139133}, {"type": "node", "id": 2034827656, "lat": 56.835212, "lon": 9.8871187}, {"type": "node", "id": 2034827658, "lat": 56.8353404, "lon": 9.8871872}, {"type": "node", "id": 2034827672, "lat": 56.8358384, "lon": 9.8874607}, {"type": "node", "id": 2065534788, "lat": 57.0409661, "lon": 9.917528}, {"type": "node", "id": 2065534789, "lat": 57.0409725, "lon": 9.917627}, {"type": "node", "id": 2065534846, "lat": 57.0419259, "lon": 9.9171157}, {"type": "node", "id": 2065534872, "lat": 57.042389, "lon": 9.9170186}, {"type": "node", "id": 2065534911, "lat": 57.0433282, "lon": 9.916279}, {"type": "node", "id": 2065534915, "lat": 57.0438983, "lon": 9.9160023}, {"type": "node", "id": 2065534923, "lat": 57.0440284, "lon": 9.9157639}, {"type": "node", "id": 2065534924, "lat": 57.0440523, "lon": 9.9158595}, {"type": "node", "id": 2065534926, "lat": 57.0441181, "lon": 9.9160897}, {"type": "node", "id": 2065534993, "lat": 57.0524419, "lon": 9.9088272}, {"type": "node", "id": 2065534999, "lat": 57.0525368, "lon": 9.9085544}, {"type": "node", "id": 2065535011, "lat": 57.0529495, "lon": 9.9086522}, {"type": "node", "id": 2065535018, "lat": 57.0538034, "lon": 9.9082739}, {"type": "node", "id": 2154932481, "lat": 57.0466285, "lon": 9.9675026, "tags": {"bus": "yes", "highway": "bus_stop", "name": "Tech College (\u00d8ster Uttrupvej)", "network": "Nordjyllands Trafikselskab", "network:wikidata": "Q3246599", "network:wikipedia": "da:Nordjyllands Trafikselskab", "public_transport": "platform", "ref": "851400601"}}, {"type": "node", "id": 2154932498, "lat": 57.0476624, "lon": 9.9662718, "tags": {"bus": "yes", "highway": "bus_stop", "name": "Tech College (\u00d8ster Uttrupvej)", "network": "Nordjyllands Trafikselskab", "network:wikidata": "Q3246599", "network:wikipedia": "da:Nordjyllands Trafikselskab", "public_transport": "platform", "ref": "851400602"}}, {"type": "node", "id": 2178800434, "lat": 56.9950205, "lon": 9.8681306, "tags": {"bench": "yes", "bus": "yes", "highway": "bus_stop", "name": "Ikea", "network": "Nordjyllands Trafikselskab", "network:wikidata": "Q3246599", "public_transport": "platform", "ref": "851805701", "ref_name": "Ikea (Hobrovej / Aalborg)", "shelter": "yes"}}, {"type": "node", "id": 2178800436, "lat": 56.9960705, "lon": 9.8701448, "tags": {"bench": "yes", "bin": "yes", "bus": "yes", "highway": "bus_stop", "lit": "yes", "name": "Ikea", "network": "Nordjyllands Trafikselskab", "network:wikidata": "Q3246599", "public_transport": "platform", "ref": "851805702", "ref_name": "Ikea (Hobrovej / Aalborg)", "shelter": "yes", "tactile_paving": "no"}}, {"type": "node", "id": 2293540483, "lat": 57.0834947, "lon": 9.8762755, "tags": {"highway": "bus_stop", "name": "Hovedv\u00e6rkstedet", "network": "Nordjyllands Trafikselskab", "network:wikidata": "Q3246599", "public_transport": "platform", "ref": "851806102", "ref_name": "Hovedv\u00e6rkstedet (Lufthavnsvej / N\u00f8rresundby)"}}, {"type": "node", "id": 2293540485, "lat": 57.077297, "lon": 9.8848597, "tags": {"highway": "bus_stop", "name": "Tagholm", "network": "Nordjyllands Trafikselskab", "network:wikidata": "Q3246599", "public_transport": "platform", "ref": "851910102", "ref_name": "Tagholm (Lufthavnsvej / N\u00f8rresundby)", "shelter": "no"}}, {"type": "node", "id": 2293540486, "lat": 57.0775823, "lon": 9.8847582, "tags": {"highway": "bus_stop", "name": "Tagholm", "network": "Nordjyllands Trafikselskab", "network:wikidata": "Q3246599", "public_transport": "platform", "ref": "851910101", "ref_name": "Tagholm (Lufthavnsvej / N\u00f8rresundby)"}}, {"type": "node", "id": 2293542818, "lat": 57.0751981, "lon": 9.8877225, "tags": {"highway": "bus_stop", "name": "Stenholm", "network": "Nordjyllands Trafikselskab", "network:wikidata": "Q3246599", "public_transport": "platform", "ref": "851910202", "ref_name": "Stenholm (Lufthavnsvej / N\u00f8rresundby)"}}, {"type": "node", "id": 2293542819, "lat": 57.0752573, "lon": 9.8879288, "tags": {"highway": "bus_stop", "name": "Stenholm", "network": "Nordjyllands Trafikselskab", "network:wikidata": "Q3246599", "public_transport": "platform", "ref": "851910201", "ref_name": "Stenholm (Lufthavnsvej / N\u00f8rresundby)"}}, {"type": "node", "id": 2342986421, "lat": 57.070521, "lon": 9.8954814, "tags": {"bench": "no", "bin": "yes", "highway": "bus_stop", "lit": "yes", "name": "\u00c5vej", "network": "Nordjyllands Trafikselskab", "network:wikidata": "Q3246599", "public_transport": "platform", "ref": "851500201", "ref_name": "\u00c5vej (Thistedvej / N\u00f8rresundby)", "shelter": "no", "tactile_paving": "no"}}, {"type": "node", "id": 2342986425, "lat": 57.0712658, "lon": 9.8932661, "tags": {"bus": "yes", "highway": "bus_stop", "name": "\u00c5vej", "network": "Nordjyllands Trafikselskab", "network:wikidata": "Q3246599", "public_transport": "platform", "ref": "851500202", "ref_name": "\u00c5vej (Thistedvej / N\u00f8rresundby)"}}, {"type": "node", "id": 2342987311, "lat": 57.0681024, "lon": 9.9009101, "tags": {"bench": "no", "bin": "no", "bus": "yes", "covered": "no", "highway": "bus_stop", "lit": "no", "name": "Viaduktvej (Thistedvej)", "network": "Nordjyllands Trafikselskab", "network:wikidata": "Q3246599", "public_transport": "platform", "ref": "851700301", "ref_name": "Viaduktvej (Thistedvej / N\u00f8rresundby)", "shelter": "no", "tactile_paving": "no"}}, {"type": "node", "id": 2342987312, "lat": 57.0692803, "lon": 9.8979934, "tags": {"highway": "bus_stop", "name": "Viaduktvej (Thistedvej)", "network": "Nordjyllands Trafikselskab", "network:wikidata": "Q3246599", "public_transport": "platform", "ref": "851700302", "ref_name": "Viaduktvej (Thistedvej / N\u00f8rresundby)"}}, {"type": "node", "id": 2342994716, "lat": 57.062851, "lon": 9.9109346, "tags": {"bus": "yes", "highway": "bus_stop", "name": "Stationsvej", "network": "Nordjyllands Trafikselskab", "network:wikidata": "Q3246599", "public_transport": "platform", "ref": "851805201", "ref_name": "Stationsvej (Thistedvej / N\u00f8rresundby)"}}, {"type": "node", "id": 2342994897, "lat": 57.0621294, "lon": 9.9123602, "tags": {"bench": "yes", "bin": "yes", "bus": "yes", "highway": "bus_stop", "lit": "yes", "name": "Stationsvej", "network": "Nordjyllands Trafikselskab", "network:wikidata": "Q3246599", "public_transport": "platform", "ref": "851805203", "ref_name": "Stationsvej (Thistedvej / N\u00f8rresundby)", "shelter": "yes", "tactile_paving": "no"}}, {"type": "node", "id": 2342997982, "lat": 57.0591354, "lon": 9.9186091, "tags": {"bus": "yes", "highway": "bus_stop", "name": "Sundby Brygge", "network": "Nordjyllands Trafikselskab", "network:wikidata": "Q3246599", "public_transport": "platform", "ref": "851802902", "ref_name": "Sundby Brygge (Vesterbrogade / N\u00f8rresundby)", "shelter": "yes"}}, {"type": "node", "id": 2342997983, "lat": 57.0600998, "lon": 9.9185225, "tags": {"bench": "yes", "bus": "yes", "highway": "bus_stop", "name": "Sundby Brygge", "network": "Nordjyllands Trafikselskab", "network:wikidata": "Q3246599", "public_transport": "platform", "ref": "851802901", "ref_name": "Sundby Brygge (Vesterbrogade / N\u00f8rresundby)", "shelter": "yes"}}, {"type": "node", "id": 2342998961, "lat": 57.0580327, "lon": 9.921139, "tags": {"bench": "yes", "bin": "yes", "bus": "yes", "covered": "yes", "highway": "bus_stop", "name": "Vesterbrogade", "network": "Nordjyllands Trafikselskab", "network:wikidata": "Q3246599", "network:wikipedia": "da:Nordjyllands Trafikselskab", "public_transport": "platform", "ref": "851001401", "ref_name": "Vesterbrogade (N\u00f8rresundby)", "tactile_paving": "no"}}, {"type": "node", "id": 2342998962, "lat": 57.0579966, "lon": 9.920655, "tags": {"bus": "yes", "highway": "bus_stop", "name": "Vesterbrogade", "network": "Nordjyllands Trafikselskab", "network:wikidata": "Q3246599", "network:wikipedia": "da:Nordjyllands Trafikselskab", "public_transport": "platform", "ref": "851001402", "ref_name": "Vesterbrogade (N\u00f8rresundby)", "shelter": "yes"}}, {"type": "node", "id": 2395042720, "lat": 56.8355824, "lon": 9.8873216}, {"type": "node", "id": 2395042725, "lat": 56.8356199, "lon": 9.887347}, {"type": "node", "id": 2395042755, "lat": 56.8358645, "lon": 9.8874649}, {"type": "node", "id": 2395042759, "lat": 56.8359442, "lon": 9.8875017}, {"type": "node", "id": 2395042763, "lat": 56.8359776, "lon": 9.8875188}, {"type": "node", "id": 2626887573, "lat": 57.0220659, "lon": 9.9646421, "tags": {"bin": "yes", "highway": "bus_stop", "name": "Esbjergparken", "public_transport": "platform", "source": "local_knowledge"}}, {"type": "node", "id": 2864477500, "lat": 57.0339073, "lon": 9.9599918, "tags": {"bench": "yes", "bin": "no", "bus": "yes", "highway": "bus_stop", "name": "Ullavej", "network": "Nordjyllands Trafikselskab", "network:wikidata": "Q3246599", "network:wikipedia": "da:Nordjyllands Trafikselskab", "public_transport": "platform", "ref": "851971102", "ref_name": "Ullavej (Humlebakken / Aalborg)", "shelter": "yes", "tactile_paving": "no"}}, {"type": "node", "id": 2864480101, "lat": 57.0461731, "lon": 9.9338648, "tags": {"bench": "yes", "bin": "yes", "bus": "yes", "highway": "bus_stop", "lit": "yes", "name": "Nordkraft", "network": "Nordjyllands Trafikselskab", "network:wikidata": "Q3246599", "public_transport": "platform", "ref": "851210502", "ref_name": "Nordkraft (\u00d8sterbro / Aalborg)", "shelter": "yes", "tactile_paving": "no"}}, {"type": "node", "id": 2893137305, "lat": 57.042612, "lon": 9.9172724}, {"type": "node", "id": 2893137359, "lat": 57.0423745, "lon": 9.9174117}, {"type": "node", "id": 2893137394, "lat": 57.0424692, "lon": 9.9173562}, {"type": "node", "id": 2893137395, "lat": 57.0425253, "lon": 9.9173232}, {"type": "node", "id": 2905167729, "lat": 57.0627741, "lon": 9.989769, "tags": {"highway": "bus_stop", "name": "Hennedal", "network:wikidata": "Q3246599", "public_transport": "platform", "ref": "851980302"}}, {"type": "node", "id": 2905167730, "lat": 57.0564322, "lon": 10.0316229, "tags": {"highway": "bus_stop", "name": "N\u00f8rredybet", "network:wikidata": "Q3246599", "public_transport": "platform", "ref": "851985901"}}, {"type": "node", "id": 2905167731, "lat": 57.0635635, "lon": 9.9840366, "tags": {"highway": "bus_stop", "name": "Beredsskabsskolen", "network": "Nordjyllands Trafikselskab", "network:wikidata": "Q3246599", "public_transport": "platform", "ref": "851980202", "ref_name": "Beredsskabsskolen (R\u00f8rdalsvej /Aalborg)"}}, {"type": "node", "id": 2905167741, "lat": 57.0634617, "lon": 9.9839769, "tags": {"highway": "bus_stop", "name": "Beredsskabsskolen", "network": "Nordjyllands Trafikselskab", "network:wikidata": "Q3246599", "public_transport": "platform", "ref": "851980201", "ref_name": "Beredsskabsskolen (R\u00f8rdalsvej /Aalborg)"}}, {"type": "node", "id": 3002690370, "lat": 56.9716652, "lon": 9.856204}, {"type": "node", "id": 3002690371, "lat": 56.971675, "lon": 9.8560441}, {"type": "node", "id": 3002690377, "lat": 56.972048, "lon": 9.8560878}, {"type": "node", "id": 3002690378, "lat": 56.9720514, "lon": 9.8562364}, {"type": "node", "id": 3002690380, "lat": 56.9721289, "lon": 9.8561022}, {"type": "node", "id": 3002690389, "lat": 56.9724681, "lon": 9.8562853}, {"type": "node", "id": 3002690390, "lat": 56.9724769, "lon": 9.8561507}, {"type": "node", "id": 3183419992, "lat": 56.6865539, "lon": 9.4946903}, {"type": "node", "id": 3392520036, "lat": 57.0148173, "lon": 9.9834238, "tags": {"bench": "no", "bin": "yes", "departures_board": "realtime", "highway": "bus_stop", "lit": "yes", "name": "AAU Damstr\u00e6de", "network": "Nordjyllands Trafikselskab", "network:wikidata": "Q3246599", "public_transport": "platform", "ref": "851991601", "ref_name": "AAU Damstr\u00e6de (Bertil Ohlins Vej / Aalborg)", "shelter": "no", "tactile_paving": "yes", "wheelchair": "yes"}}, {"type": "node", "id": 3392544326, "lat": 57.0148753, "lon": 9.9871875}, {"type": "node", "id": 3392544327, "lat": 57.014872, "lon": 9.9874954}, {"type": "node", "id": 3392544329, "lat": 57.0148025, "lon": 9.9872599}, {"type": "node", "id": 3392544330, "lat": 57.0148, "lon": 9.9875062}, {"type": "node", "id": 3392696841, "lat": 57.0116438, "lon": 9.9945284}, {"type": "node", "id": 3393406799, "lat": 57.015354, "lon": 9.9759931, "tags": {"bench": "yes", "bin": "yes", "departures_board": "realtime", "fixme": "Muligvis ikke navngivet korrekt?", "highway": "bus_stop", "lit": "yes", "name": "AAU Kantinen", "network": "Nordjyllands Trafikselskab", "network:wikidata": "Q3246599", "public_transport": "platform", "ref": "851991502", "ref_name": "AAU Fibigerstr\u00e6de (Bertil Ohlins Vej / Aalborg)", "shelter": "yes", "tactile_paving": "yes", "wheelchair": "yes"}}, {"type": "node", "id": 3393406800, "lat": 57.0152643, "lon": 9.9761178, "tags": {"bench": "no", "bin": "no", "departures_board": "realtime", "fixme": "Muligvis ikke navngivet korrekt?", "highway": "bus_stop", "lit": "yes", "name": "AAU Kantinen", "network": "Nordjyllands Trafikselskab", "network:wikidata": "Q3246599", "public_transport": "platform", "ref": "851991501", "ref_name": "AAU Fibigerstr\u00e6de (Bertil Ohlins Vej / Aalborg)", "shelter": "no", "tactile_paving": "yes", "wheelchair": "yes"}}, {"type": "node", "id": 3393426143, "lat": 57.0154728, "lon": 9.9717803, "tags": {"bench": "yes", "bin": "yes", "bus": "yes", "departures_board": "realtime", "highway": "bus_stop", "lit": "yes", "name": "Pontoppidanstr\u00e6de", "network": "Nordjyllands Trafikselskab", "network:wikidata": "Q3246599", "network:wikipedia": "da:Nordjyllands Trafikselskab", "public_transport": "platform", "ref": "851991202", "ref_name": "Pontoppidanstr\u00e6de (Bertil Ohlins Vej / Aalborg)", "shelter": "yes", "tactile_paving": "yes", "wheelchair": "yes"}}, {"type": "node", "id": 3393426144, "lat": 57.015325, "lon": 9.9717927, "tags": {"bench": "no", "bin": "yes", "bus": "yes", "departures_board": "realtime", "highway": "bus_stop", "lit": "yes", "name": "Pontoppidanstr\u00e6de", "network": "Nordjyllands Trafikselskab", "network:wikidata": "Q3246599", "network:wikipedia": "da:Nordjyllands Trafikselskab", "public_transport": "platform", "ref": "851991201", "ref_name": "Pontoppidanstr\u00e6de (Bertil Ohlins Vej / Aalborg)", "shelter": "no", "tactile_paving": "yes", "wheelchair": "yes"}}, {"type": "node", "id": 3393438317, "lat": 57.0190127, "lon": 9.9683831}, {"type": "node", "id": 3393438318, "lat": 57.0187538, "lon": 9.9683702}, {"type": "node", "id": 3393438319, "lat": 57.0190231, "lon": 9.9681009}, {"type": "node", "id": 3393438320, "lat": 57.0187643, "lon": 9.968088}, {"type": "node", "id": 3393448230, "lat": 57.0189053, "lon": 9.9683777}, {"type": "node", "id": 3393448231, "lat": 57.0189336, "lon": 9.9680964}, {"type": "node", "id": 3393552956, "lat": 57.0187117, "lon": 9.9566782, "tags": {"bench": "yes", "bin": "yes", "departures_board": "realtime", "highway": "bus_stop", "lit": "yes", "name": "Pendlerpladsen E45", "network": "Nordjyllands Trafikselskab", "network:wikidata": "Q3246599", "public_transport": "platform", "ref": "851991401", "ref_name": "Pendlerpladsen E45 (Bertil Ohlins Vej / Aalborg)", "shelter": "yes", "tactile_paving": "yes"}}, {"type": "node", "id": 3393552957, "lat": 57.0183251, "lon": 9.9569489, "tags": {"bench": "yes", "bin": "yes", "departures_board": "realtime", "highway": "bus_stop", "lit": "yes", "name": "Pendlerpladsen E45", "network": "Nordjyllands Trafikselskab", "network:wikidata": "Q3246599", "public_transport": "platform", "ref": "851991402", "ref_name": "Pendlerpladsen E45 (Bertil Ohlins Vej / Aalborg)", "shelter": "yes", "tactile_paving": "yes"}}, {"type": "node", "id": 3393553814, "lat": 57.0213414, "lon": 9.9516496, "tags": {"bench": "yes", "bin": "yes", "bus": "yes", "departures_board": "realtime", "highway": "bus_stop", "lit": "yes", "name": "Scoresbysundvej", "network": "Nordjyllands Trafikselskab", "network:wikidata": "Q3246599", "public_transport": "platform", "ref": "851009302", "ref_name": "Scoresbysundvej (Universitetsboulevarden/Aalborg)", "shelter": "yes", "tactile_paving": "yes"}}, {"type": "node", "id": 3393553815, "lat": 57.0209519, "lon": 9.9525008, "tags": {"bench": "yes", "bin": "yes", "highway": "bus_stop", "lit": "yes", "name": "Scoresbysundvej", "network": "Nordjyllands Trafikselskab", "network:wikidata": "Q3246599", "public_transport": "platform", "ref": "851009301", "ref_name": "Scoresbysundvej (Universitetsboulevarden/Aalborg)", "shelter": "yes", "tactile_paving": "yes"}}, {"type": "node", "id": 3393556838, "lat": 57.0231236, "lon": 9.941078, "tags": {"bench": "yes", "bin": "yes", "bus": "yes", "highway": "bus_stop", "name": "Gr\u00f8nlands Torv", "network": "Nordjyllands Trafikselskab", "network:wikidata": "Q3246599", "network:wikipedia": "da:Nordjyllands Trafikselskab", "public_transport": "platform", "ref": "851102302", "ref_name": "Gr\u00f8nlands Torv (Sohng\u00e5rdsholmsvej / Aalborg)", "shelter": "yes"}}, {"type": "node", "id": 3393556839, "lat": 57.0238533, "lon": 9.9430192, "tags": {"bench": "yes", "bin": "yes", "bus": "yes", "highway": "bus_stop", "lit": "yes", "name": "Gr\u00f8nlands Torv", "network": "Nordjyllands Trafikselskab", "network:wikidata": "Q3246599", "network:wikipedia": "da:Nordjyllands Trafikselskab", "public_transport": "platform", "ref": "851017601", "ref_name": "Gr\u00f8nlands Torv (Universitetsboulevarden / Aalborg)", "shelter": "yes", "tactile_paving": "yes"}}, {"type": "node", "id": 3393556840, "lat": 57.0239478, "lon": 9.9431191, "tags": {"bench": "yes", "bin": "yes", "bus": "yes", "departures_board": "realtime", "highway": "bus_stop", "lit": "yes", "name": "Gr\u00f8nlands Torv", "network": "Nordjyllands Trafikselskab", "network:wikidata": "Q3246599", "network:wikipedia": "da:Nordjyllands Trafikselskab", "public_transport": "platform", "ref": "851017602", "ref_name": "Gr\u00f8nlands Torv (Universitetsboulevarden / Aalborg)", "shelter": "yes", "tactile_paving": "yes"}}, {"type": "node", "id": 3393785906, "lat": 57.0410693, "lon": 9.9183893}, {"type": "node", "id": 3393785907, "lat": 57.0413334, "lon": 9.9183135}, {"type": "node", "id": 3393785908, "lat": 57.0410753, "lon": 9.9185638}, {"type": "node", "id": 3393785909, "lat": 57.041345, "lon": 9.9185417}, {"type": "node", "id": 3393785910, "lat": 57.0410735, "lon": 9.918478}, {"type": "node", "id": 3393785911, "lat": 57.0413411, "lon": 9.9184347}, {"type": "node", "id": 3393785912, "lat": 57.041076, "lon": 9.9186547}, {"type": "node", "id": 3393785913, "lat": 57.0413464, "lon": 9.9186523}, {"type": "node", "id": 3393785914, "lat": 57.041076, "lon": 9.9187414}, {"type": "node", "id": 3393785915, "lat": 57.041345, "lon": 9.9187616}, {"type": "node", "id": 3393785916, "lat": 57.0410729, "lon": 9.9188298}, {"type": "node", "id": 3393785917, "lat": 57.0413407, "lon": 9.9188747}, {"type": "node", "id": 3393785918, "lat": 57.0410678, "lon": 9.9189135}, {"type": "node", "id": 3393785919, "lat": 57.0413337, "lon": 9.9189834}, {"type": "node", "id": 3393785920, "lat": 57.04106, "lon": 9.9190025}, {"type": "node", "id": 3393785921, "lat": 57.041324, "lon": 9.9190924}, {"type": "node", "id": 3393785922, "lat": 57.0410507, "lon": 9.9190857}, {"type": "node", "id": 3393785923, "lat": 57.0413109, "lon": 9.9192055}, {"type": "node", "id": 3393785924, "lat": 57.0410391, "lon": 9.9191701}, {"type": "node", "id": 3393785925, "lat": 57.0412961, "lon": 9.9193094}, {"type": "node", "id": 3393785926, "lat": 57.041025, "lon": 9.9192525}, {"type": "node", "id": 3393785927, "lat": 57.0412782, "lon": 9.9194154}, {"type": "node", "id": 3393825816, "lat": 57.0431915, "lon": 9.9182712, "tags": {"bench": "yes", "bin": "no", "bus": "yes", "highway": "bus_stop", "level": "0", "lit": "yes", "local_ref": "A2", "name": "Aalborg Station", "network": "Nordjyllands Trafikselskab", "network:wikidata": "Q3246599", "public_transport": "platform", "ref": "851002704", "ref_name": "Aalborg Station / Busterminal (Omr\u00e5de A)", "shelter": "yes", "tactile_paving": "no", "wheelchair": "yes"}}, {"type": "node", "id": 3393825817, "lat": 57.0429012, "lon": 9.9181396, "tags": {"bench": "yes", "bin": "yes", "bus": "yes", "highway": "bus_stop", "lit": "yes", "local_ref": "A1", "name": "Aalborg Station", "network": "Nordjyllands Trafikselskab", "network:wikidata": "Q3246599", "public_transport": "platform", "ref": "851002702", "ref_name": "Aalborg Station / Busterminal (Omr\u00e5de A)", "shelter": "yes", "tactile_paving": "yes", "wheelchair": "yes"}}, {"type": "node", "id": 3393825818, "lat": 57.0435437, "lon": 9.9183305, "tags": {"bench": "yes", "bin": "yes", "bus": "yes", "highway": "bus_stop", "lit": "yes", "local_ref": "A3", "name": "Aalborg Station", "network": "Nordjyllands Trafikselskab", "network:wikidata": "Q3246599", "public_transport": "platform", "ref": "851002703", "ref_name": "Aalborg Station / Busterminal (Omr\u00e5de A)", "shelter": "yes", "tactile_paving": "yes", "wheelchair": "yes"}}, {"type": "node", "id": 3393825819, "lat": 57.0435318, "lon": 9.9186116, "tags": {"bench": "yes", "bin": "yes", "bus": "yes", "highway": "bus_stop", "lit": "yes", "local_ref": "A4", "name": "Aalborg Station", "network": "Nordjyllands Trafikselskab", "network:wikidata": "Q3246599", "public_transport": "platform", "ref": "851002701", "ref_name": "Aalborg Station / Busterminal (Omr\u00e5de A)", "shelter": "yes", "tactile_paving": "yes", "wheelchair": "yes"}}, {"type": "node", "id": 3393825820, "lat": 57.0422146, "lon": 9.9177394, "tags": {"bench": "yes", "bin": "yes", "bus": "yes", "highway": "bus_stop", "lit": "yes", "local_ref": "B3", "name": "Aalborg Station", "network": "Nordjyllands Trafikselskab", "network:wikidata": "Q3246599", "public_transport": "platform", "ref": "851920101", "ref_name": "Aalborg Station / Busterminal (Omr\u00e5de B)", "shelter": "yes", "tactile_paving": "no", "wheelchair": "yes"}}, {"type": "node", "id": 3393825821, "lat": 57.0418701, "lon": 9.9177409, "tags": {"bench": "yes", "bin": "yes", "bus": "yes", "highway": "bus_stop", "lit": "yes", "local_ref": "B4", "name": "Aalborg Station", "network": "Nordjyllands Trafikselskab", "network:wikidata": "Q3246599", "public_transport": "platform", "ref": "851920103", "ref_name": "Aalborg Station / Busterminal (Omr\u00e5de B)", "shelter": "yes", "tactile_paving": "no", "wheelchair": "yes"}}, {"type": "node", "id": 3393825822, "lat": 57.0420008, "lon": 9.918027, "tags": {"bench": "yes", "bin": "yes", "bus": "yes", "highway": "bus_stop", "lit": "yes", "local_ref": "B2", "name": "Aalborg Station", "network": "Nordjyllands Trafikselskab", "network:wikidata": "Q3246599", "public_transport": "platform", "ref": "851920104", "ref_name": "Aalborg Station / Busterminal (Omr\u00e5de B)", "shelter": "yes", "tactile_paving": "no", "wheelchair": "yes"}}, {"type": "node", "id": 3393825823, "lat": 57.0422446, "lon": 9.9180239, "tags": {"bench": "yes", "bin": "no", "bus": "yes", "highway": "bus_stop", "lit": "yes", "local_ref": "B1", "name": "Aalborg Station", "network": "Nordjyllands Trafikselskab", "network:wikidata": "Q3246599", "public_transport": "platform", "ref": "851920102", "ref_name": "Aalborg Station / Busterminal (Omr\u00e5de B)", "shelter": "yes", "tactile_paving": "yes", "wheelchair": "yes"}}, {"type": "node", "id": 3393825824, "lat": 57.0413332, "lon": 9.918702, "tags": {"bench": "no", "bin": "no", "bus": "yes", "highway": "bus_stop", "lit": "yes", "local_ref": "C4", "name": "Aalborg Station", "network": "Nordjyllands Trafikselskab", "network:wikidata": "Q3246599", "public_transport": "platform", "ref_name": "Aalborg Station / Busterminal (Omr\u00e5de C)", "shelter": "no", "tactile_paving": "no"}}, {"type": "node", "id": 3393825825, "lat": 57.0413285, "lon": 9.91881, "tags": {"bench": "no", "bin": "no", "bus": "yes", "highway": "bus_stop", "lit": "yes", "local_ref": "C5", "name": "Aalborg Station", "network": "Nordjyllands Trafikselskab", "network:wikidata": "Q3246599", "public_transport": "platform", "ref_name": "Aalborg Station / Busterminal (Omr\u00e5de C)", "shelter": "no", "tactile_paving": "no"}}, {"type": "node", "id": 3393825826, "lat": 57.0413244, "lon": 9.9189193, "tags": {"bench": "no", "bin": "no", "bus": "yes", "highway": "bus_stop", "lit": "yes", "local_ref": "C6", "name": "Aalborg Station", "network": "Nordjyllands Trafikselskab", "network:wikidata": "Q3246599", "public_transport": "platform", "ref_name": "Aalborg Station / Busterminal (Omr\u00e5de C)", "shelter": "no", "tactile_paving": "no"}}, {"type": "node", "id": 3393825827, "lat": 57.0413164, "lon": 9.9190246, "tags": {"bench": "no", "bin": "no", "bus": "yes", "highway": "bus_stop", "lit": "yes", "local_ref": "C7", "name": "Aalborg Station", "network": "Nordjyllands Trafikselskab", "network:wikidata": "Q3246599", "public_transport": "platform", "ref_name": "Aalborg Station / Busterminal (Omr\u00e5de C)", "shelter": "no", "tactile_paving": "no"}}, {"type": "node", "id": 3393825828, "lat": 57.0413044, "lon": 9.9191332, "tags": {"bench": "no", "bin": "no", "bus": "yes", "highway": "bus_stop", "lit": "yes", "local_ref": "C8", "name": "Aalborg Station", "network": "Nordjyllands Trafikselskab", "network:wikidata": "Q3246599", "public_transport": "platform", "ref_name": "Aalborg Station / Busterminal (Omr\u00e5de C)", "shelter": "no", "tactile_paving": "no"}}, {"type": "node", "id": 3393825829, "lat": 57.041292, "lon": 9.9192391, "tags": {"bench": "no", "bin": "no", "bus": "yes", "highway": "bus_stop", "lit": "yes", "local_ref": "C9", "name": "Aalborg Station", "network": "Nordjyllands Trafikselskab", "network:wikidata": "Q3246599", "public_transport": "platform", "ref_name": "Aalborg Station / Busterminal (Omr\u00e5de C)", "shelter": "no", "tactile_paving": "no"}}, {"type": "node", "id": 3393825830, "lat": 57.0412752, "lon": 9.9193411, "tags": {"bench": "no", "bin": "no", "bus": "yes", "highway": "bus_stop", "lit": "yes", "local_ref": "C10", "name": "Aalborg Station", "network": "Nordjyllands Trafikselskab", "network:wikidata": "Q3246599", "public_transport": "platform", "ref_name": "Aalborg Station / Busterminal (Omr\u00e5de C)", "shelter": "no", "tactile_paving": "no"}}, {"type": "node", "id": 3393825831, "lat": 57.0412562, "lon": 9.9194457, "tags": {"bench": "no", "bin": "no", "bus": "yes", "highway": "bus_stop", "lit": "yes", "local_ref": "C11", "name": "Aalborg Station", "network": "Nordjyllands Trafikselskab", "network:wikidata": "Q3246599", "public_transport": "platform", "ref_name": "Aalborg Station / Busterminal (Omr\u00e5de C)", "shelter": "no", "tactile_paving": "no"}}, {"type": "node", "id": 3393825832, "lat": 57.0413321, "lon": 9.918592, "tags": {"bench": "no", "bin": "no", "bus": "yes", "fixme": "tjek at refs og positioner, samt forbindelser til de rigtige ruter h\u00e6nger rigtigt sammen her", "highway": "bus_stop", "lit": "yes", "local_ref": "C3", "name": "Aalborg Station", "network": "Nordjyllands Trafikselskab", "network:wikidata": "Q3246599", "public_transport": "platform", "ref": "851100102", "ref_name": "Aalborg Station / Busterminal (Omr\u00e5de C)", "shelter": "no", "tactile_paving": "no"}}, {"type": "node", "id": 3393825833, "lat": 57.041331, "lon": 9.9184881, "tags": {"bench": "no", "bin": "no", "bus": "yes", "fixme": "tjek at refs og positioner, samt forbindelser til de rigtige ruter h\u00e6nger rigtigt sammen her", "highway": "bus_stop", "lit": "yes", "local_ref": "C2", "name": "Aalborg Station", "network": "Nordjyllands Trafikselskab", "network:wikidata": "Q3246599", "public_transport": "platform", "ref": "851100101", "ref_name": "Aalborg Station / Busterminal (Omr\u00e5de C)", "shelter": "no", "tactile_paving": "no"}}, {"type": "node", "id": 3393825834, "lat": 57.0413223, "lon": 9.9183634, "tags": {"bench": "no", "bin": "no", "bus": "yes", "fixme": "tjek at refs og positioner, samt forbindelser til de rigtige ruter h\u00e6nger rigtigt sammen her", "highway": "bus_stop", "lit": "yes", "local_ref": "C1", "name": "Aalborg Station", "network": "Nordjyllands Trafikselskab", "network:wikidata": "Q3246599", "public_transport": "platform", "ref": "851100109", "ref_name": "Aalborg Station / Busterminal (Omr\u00e5de C)", "shelter": "no", "tactile_paving": "no"}}, {"type": "node", "id": 3393870786, "lat": 57.040992, "lon": 9.9178425}, {"type": "node", "id": 3393870787, "lat": 57.0423485, "lon": 9.9172618}, {"type": "node", "id": 3393870788, "lat": 57.0435044, "lon": 9.916547}, {"type": "node", "id": 3393870789, "lat": 57.0441056, "lon": 9.9160435}, {"type": "node", "id": 3393870790, "lat": 57.0441297, "lon": 9.9161272}, {"type": "node", "id": 3393870791, "lat": 57.041, "lon": 9.9179487}, {"type": "node", "id": 3393871793, "lat": 57.0435184, "lon": 9.9166195}, {"type": "node", "id": 3393871794, "lat": 57.0439532, "lon": 9.9161906}, {"type": "node", "id": 3393871795, "lat": 57.0438334, "lon": 9.916383}, {"type": "node", "id": 3393871796, "lat": 57.0438023, "lon": 9.9163191}, {"type": "node", "id": 3393871797, "lat": 57.0435315, "lon": 9.9166878}, {"type": "node", "id": 3393871800, "lat": 57.0439681, "lon": 9.9162638}, {"type": "node", "id": 3393871804, "lat": 57.04291, "lon": 9.9169415}, {"type": "node", "id": 3393871806, "lat": 57.0429403, "lon": 9.9166106}, {"type": "node", "id": 3393871807, "lat": 57.0426942, "lon": 9.9167687}, {"type": "node", "id": 3393878514, "lat": 57.0420477, "lon": 9.9175309}, {"type": "node", "id": 3393888243, "lat": 57.0426479, "lon": 9.9172513}, {"type": "node", "id": 3393888248, "lat": 57.043609, "lon": 9.9165533}, {"type": "node", "id": 3393888251, "lat": 57.043805, "lon": 9.9164049}, {"type": "node", "id": 3393912103, "lat": 57.0440403, "lon": 9.9158117}, {"type": "node", "id": 3393919584, "lat": 57.0437617, "lon": 9.9161181}, {"type": "node", "id": 3393919586, "lat": 57.0433578, "lon": 9.9164235}, {"type": "node", "id": 3393919589, "lat": 57.0419437, "lon": 9.9172574}, {"type": "node", "id": 3393921386, "lat": 57.0423678, "lon": 9.9168759}, {"type": "node", "id": 3393937769, "lat": 57.0415488, "lon": 9.917342}, {"type": "node", "id": 3393937770, "lat": 57.0415526, "lon": 9.9173709}, {"type": "node", "id": 3393937771, "lat": 57.0416536, "lon": 9.9173267}, {"type": "node", "id": 3393937772, "lat": 57.0416498, "lon": 9.9172977}, {"type": "node", "id": 3393937773, "lat": 57.0416697, "lon": 9.9172863}, {"type": "node", "id": 3393937774, "lat": 57.0416742, "lon": 9.9173184}, {"type": "node", "id": 3393937775, "lat": 57.0417308, "lon": 9.9172921}, {"type": "node", "id": 3393937776, "lat": 57.0417264, "lon": 9.9172599}, {"type": "node", "id": 3393937777, "lat": 57.0417709, "lon": 9.9172394}, {"type": "node", "id": 3393937778, "lat": 57.0417756, "lon": 9.9172718}, {"type": "node", "id": 3393937779, "lat": 57.0419446, "lon": 9.9171896}, {"type": "node", "id": 3393937780, "lat": 57.0419399, "lon": 9.9171572}, {"type": "node", "id": 3393939948, "lat": 57.0419818, "lon": 9.917134}, {"type": "node", "id": 3393939949, "lat": 57.0419874, "lon": 9.9171724}, {"type": "node", "id": 3393939950, "lat": 57.0421562, "lon": 9.9170889}, {"type": "node", "id": 3393939951, "lat": 57.0421506, "lon": 9.9170506}, {"type": "node", "id": 3393939952, "lat": 57.043573, "lon": 9.916159}, {"type": "node", "id": 3393939953, "lat": 57.0435808, "lon": 9.9161957}, {"type": "node", "id": 3393939954, "lat": 57.0437511, "lon": 9.9160737}, {"type": "node", "id": 3393939955, "lat": 57.0437434, "lon": 9.916037}, {"type": "node", "id": 3393939956, "lat": 57.0437807, "lon": 9.9160046}, {"type": "node", "id": 3393939957, "lat": 57.0437888, "lon": 9.9160372}, {"type": "node", "id": 3393939958, "lat": 57.0439506, "lon": 9.9158958}, {"type": "node", "id": 3393939959, "lat": 57.0439458, "lon": 9.915878}, {"type": "node", "id": 3393939960, "lat": 57.0439253, "lon": 9.9163017}, {"type": "node", "id": 3393947036, "lat": 57.0438771, "lon": 9.9163443}, {"type": "node", "id": 3396826272, "lat": 57.0291548, "lon": 9.94431}, {"type": "node", "id": 3396826273, "lat": 57.0295283, "lon": 9.9444846}, {"type": "node", "id": 3396826274, "lat": 57.0298374, "lon": 9.9444344}, {"type": "node", "id": 3396849156, "lat": 57.0327814, "lon": 9.9437174, "tags": {"bench": "yes", "bin": "yes", "bus": "yes", "highway": "bus_stop", "name": "Sohng\u00e5rdsholmsparken", "network": "Nordjyllands Trafikselskab", "network:wikidata": "Q3246599", "public_transport": "platform", "ref": "851108203", "ref_name": "Sohng\u00e5rdsholmsparken (Sohng\u00e5rdsholmsvej/Aal", "shelter": "yes"}}, {"type": "node", "id": 3396849157, "lat": 57.032162, "lon": 9.9432335}, {"type": "node", "id": 3396849546, "lat": 57.0329134, "lon": 9.9428177}, {"type": "node", "id": 3396849547, "lat": 57.0331689, "lon": 9.9425712}, {"type": "node", "id": 3396849548, "lat": 57.0325617, "lon": 9.9429904}, {"type": "node", "id": 3396849549, "lat": 57.0321715, "lon": 9.9432792}, {"type": "node", "id": 3397173674, "lat": 57.0424381, "lon": 9.9263077, "tags": {"bench": "yes", "bin": "yes", "bus": "yes", "highway": "bus_stop", "lit": "yes", "name": "Jyllandsgade", "network": "Nordjyllands Trafikselskab", "network:wikidata": "Q3246599", "network:wikipedia": "da:Nordjyllands Trafikselskab", "public_transport": "platform", "ref": "851012201", "ref_name": "Jyllandsgade (Aalborg Kommune)", "shelter": "yes", "tactile_paving": "yes"}}, {"type": "node", "id": 3397338056, "lat": 57.0599083, "lon": 9.918578}, {"type": "node", "id": 3397338057, "lat": 57.0600858, "lon": 9.9184225}, {"type": "node", "id": 3397338058, "lat": 57.060021, "lon": 9.9184843}, {"type": "node", "id": 3397345902, "lat": 57.0627202, "lon": 9.9122149, "tags": {"bus": "yes", "highway": "bus_stop", "name": "Stationsvej", "network": "Nordjyllands Trafikselskab", "network:wikidata": "Q3246599", "public_transport": "platform", "ref": "851805202", "ref_name": "Stationsvej (Thistedvej / N\u00f8rresundby)", "shelter": "no"}}, {"type": "node", "id": 3397358428, "lat": 57.0667461, "lon": 9.9048071}, {"type": "node", "id": 3397358429, "lat": 57.0668534, "lon": 9.9046339}, {"type": "node", "id": 3397358430, "lat": 57.0666852, "lon": 9.9046135}, {"type": "node", "id": 3397358431, "lat": 57.0667905, "lon": 9.904436}, {"type": "node", "id": 3397790749, "lat": 57.0670224, "lon": 9.905214, "tags": {"bench": "yes", "bus": "yes", "highway": "bus_stop", "name": "Lindholm Station", "public_transport": "platform", "shelter": "yes"}}, {"type": "node", "id": 3397790750, "lat": 57.0665949, "lon": 9.9050508}, {"type": "node", "id": 3397790751, "lat": 57.0667028, "lon": 9.9048774}, {"type": "node", "id": 3397790752, "lat": 57.0666969, "lon": 9.90491, "tags": {"bench": "yes", "bin": "yes", "bus": "yes", "highway": "bus_stop", "name": "Lindholm Station", "public_transport": "platform", "shelter": "yes"}}, {"type": "node", "id": 3397790754, "lat": 57.0671408, "lon": 9.9050878}, {"type": "node", "id": 3397790755, "lat": 57.0670015, "lon": 9.9052751}, {"type": "node", "id": 3397790756, "lat": 57.067268, "lon": 9.9050897}, {"type": "node", "id": 3397790757, "lat": 57.067405, "lon": 9.9049258}, {"type": "node", "id": 3397796500, "lat": 57.0662118, "lon": 9.906257}, {"type": "node", "id": 3397796501, "lat": 57.066193, "lon": 9.9062172}, {"type": "node", "id": 3397796502, "lat": 57.0673122, "lon": 9.904417}, {"type": "node", "id": 3397796503, "lat": 57.0673312, "lon": 9.9044566}, {"type": "node", "id": 3397796504, "lat": 57.0667781, "lon": 9.905371}, {"type": "node", "id": 3397796505, "lat": 57.066756, "lon": 9.9053299}, {"type": "node", "id": 3397796511, "lat": 57.0673195, "lon": 9.9044322}, {"type": "node", "id": 3397796512, "lat": 57.0669841, "lon": 9.9050305}, {"type": "node", "id": 3397808394, "lat": 57.0651356, "lon": 9.9090604, "tags": {"bench": "no", "bin": "no", "bus": "yes", "highway": "bus_stop", "lit": "yes", "name": "M\u00f8llevej", "network": "Nordjyllands Trafikselskab", "network:wikidata": "Q3246599", "public_transport": "platform", "ref": "851700401", "ref_name": "M\u00f8llevej (Stationsvej / N\u00f8rresundby)", "shelter": "no", "tactile_paving": "no"}}, {"type": "node", "id": 3397812954, "lat": 57.064695, "lon": 9.9091974, "tags": {"bench": "yes", "bin": "yes", "bus": "yes", "highway": "bus_stop", "lit": "yes", "name": "M\u00f8llevej", "network": "Nordjyllands Trafikselskab", "network:wikidata": "Q3246599", "public_transport": "platform", "ref": "851700402", "ref_name": "M\u00f8llevej (Stationsvej / N\u00f8rresundby)", "shelter": "yes", "tactile_paving": "no"}}, {"type": "node", "id": 3397812955, "lat": 57.0647584, "lon": 9.9091715}, {"type": "node", "id": 3397812956, "lat": 57.0646447, "lon": 9.9093009}, {"type": "node", "id": 3397817321, "lat": 57.0691999, "lon": 9.9030653, "tags": {"bus": "yes", "highway": "bus_stop", "name": "Viaduktvej (Stationsvej)", "network": "Nordjyllands Trafikselskab", "network:wikidata": "Q3246599", "public_transport": "platform", "ref": "851012801", "ref_name": "Viaduktvej (Stationsvej / N\u00f8rresundby)", "shelter": "no", "tactile_paving": "no"}}, {"type": "node", "id": 3397818634, "lat": 57.0693532, "lon": 9.9026708, "tags": {"bus": "yes", "highway": "bus_stop", "name": "Viaduktvej (Stationsvej)", "network": "Nordjyllands Trafikselskab", "network:wikidata": "Q3246599", "public_transport": "platform", "ref": "851012802", "ref_name": "Viaduktvej (Stationsvej / N\u00f8rresundby)", "shelter": "yes", "tactile_paving": "no"}}, {"type": "node", "id": 3397826412, "lat": 57.0698383, "lon": 9.9063279, "tags": {"bus": "yes", "highway": "bus_stop", "name": "Lindholmsvej", "network": "Nordjyllands Trafikselskab", "network:wikidata": "Q3246599", "public_transport": "platform", "ref": "851921402", "ref_name": "Lindholmsvej (Forbindelsesvejen/ N\u00f8rresundby)", "shelter": "yes", "tactile_paving": "no"}}, {"type": "node", "id": 3397826424, "lat": 57.0698773, "lon": 9.9089955, "tags": {"bus": "yes", "highway": "bus_stop", "name": "Lindholmsvej", "network": "Nordjyllands Trafikselskab", "network:wikidata": "Q3246599", "public_transport": "platform", "ref": "851921401", "ref_name": "Lindholmsvej (Forbindelsesvejen/ N\u00f8rresundby)", "shelter": "no"}}, {"type": "node", "id": 3397826931, "lat": 57.0713572, "lon": 9.9057004}, {"type": "node", "id": 3397826932, "lat": 57.0711658, "lon": 9.9058596}, {"type": "node", "id": 3397830459, "lat": 57.0714644, "lon": 9.9054396}, {"type": "node", "id": 3397830460, "lat": 57.0712717, "lon": 9.9055876}, {"type": "node", "id": 3397841789, "lat": 57.075123, "lon": 9.912753, "tags": {"bench": "yes", "bin": "yes", "highway": "bus_stop", "lit": "yes", "name": "Lindholm H\u00f8je", "network": "Nordjyllands Trafikselskab", "network:wikidata": "Q3246599", "public_transport": "platform", "ref": "851520302", "ref_name": "Lindholm H\u00f8je (Vangen / N\u00f8rresundby)", "shelter": "yes", "tactile_paving": "no"}}, {"type": "node", "id": 3397846595, "lat": 57.075302, "lon": 9.9217129}, {"type": "node", "id": 3397846596, "lat": 57.0752987, "lon": 9.9215224}, {"type": "node", "id": 3397846598, "lat": 57.0751963, "lon": 9.9217416}, {"type": "node", "id": 3397846599, "lat": 57.075193, "lon": 9.9215252}, {"type": "node", "id": 3397858902, "lat": 57.0754336, "lon": 9.927596}, {"type": "node", "id": 3397858903, "lat": 57.0754229, "lon": 9.9270433}, {"type": "node", "id": 3397858911, "lat": 57.0753025, "lon": 9.9277535, "tags": {"highway": "bus_stop", "name": "Lions Park", "network": "Nordjyllands Trafikselskab", "network:wikidata": "Q3246599", "public_transport": "platform", "ref": "851214101", "ref_name": "Lions Park (Vangen / N\u00f8rresundby)"}}, {"type": "node", "id": 3397868174, "lat": 57.0753956, "lon": 9.9310583, "tags": {"highway": "bus_stop", "name": "L\u00f8vbakken", "network": "Nordjyllands Trafikselskab", "network:wikidata": "Q3246599", "public_transport": "platform", "ref": "851915301", "ref_name": "L\u00f8vbakken (Vangen / N\u00f8rresundby)"}}, {"type": "node", "id": 3397868175, "lat": 57.0755054, "lon": 9.9307935}, {"type": "node", "id": 3397868176, "lat": 57.0754995, "lon": 9.9304039}, {"type": "node", "id": 3397872363, "lat": 57.0762075, "lon": 9.9385729, "tags": {"highway": "bus_stop", "name": "Sol\u00f8jevej", "network": "Nordjyllands Trafikselskab", "network:wikidata": "Q3246599", "public_transport": "platform", "ref": "851019101", "ref_name": "Sol\u00f8jevej (Vangen / N\u00f8rresundby)"}}, {"type": "node", "id": 3397872368, "lat": 57.0763771, "lon": 9.938385}, {"type": "node", "id": 3397872369, "lat": 57.0763058, "lon": 9.9381013}, {"type": "node", "id": 3397881769, "lat": 57.0782308, "lon": 9.9382828}, {"type": "node", "id": 3397881770, "lat": 57.0784364, "lon": 9.9381128}, {"type": "node", "id": 3397881772, "lat": 57.0786681, "lon": 9.9377442}, {"type": "node", "id": 3397881773, "lat": 57.0784611, "lon": 9.9379127}, {"type": "node", "id": 3397897385, "lat": 57.0807314, "lon": 9.941847}, {"type": "node", "id": 3397897386, "lat": 57.0806522, "lon": 9.9415909}, {"type": "node", "id": 3397982854, "lat": 56.9975719, "lon": 9.9933392}, {"type": "node", "id": 3397982855, "lat": 56.997406, "lon": 9.9934035}, {"type": "node", "id": 3397982857, "lat": 56.9968619, "lon": 9.9940005}, {"type": "node", "id": 3397982858, "lat": 56.9969658, "lon": 9.993921}, {"type": "node", "id": 3397995069, "lat": 57.0011964, "lon": 9.9941534}, {"type": "node", "id": 3397995070, "lat": 57.001425, "lon": 9.9942392}, {"type": "node", "id": 3397995073, "lat": 57.0006546, "lon": 9.9937367}, {"type": "node", "id": 3397995074, "lat": 57.0004791, "lon": 9.9936521}, {"type": "node", "id": 3397998881, "lat": 56.9990668, "lon": 9.9931175}, {"type": "node", "id": 3397998882, "lat": 56.9989023, "lon": 9.9931061}, {"type": "node", "id": 3397998884, "lat": 56.9986358, "lon": 9.9932934}, {"type": "node", "id": 3397998885, "lat": 56.9987462, "lon": 9.9932771}, {"type": "node", "id": 3397998886, "lat": 56.9988145, "lon": 9.9932755}, {"type": "node", "id": 3398013715, "lat": 56.9936492, "lon": 9.9990158, "tags": {"bench": "no", "highway": "bus_stop", "name": "Gistrupparken", "network": "Nordjyllands Trafikselskab", "network:wikidata": "Q3246599", "public_transport": "platform", "ref": "851994802", "ref_name": "Gistrupparken (Hadsundvej / Gistrup)", "shelter": "no"}}, {"type": "node", "id": 3398013718, "lat": 56.9936647, "lon": 9.9986873, "tags": {"bench": "no", "highway": "bus_stop", "name": "Gistrupparken", "network": "Nordjyllands Trafikselskab", "network:wikidata": "Q3246599", "public_transport": "platform", "ref": "851994801", "ref_name": "Gistrupparken (Hadsundvej / Gistrup)", "shelter": "no"}}, {"type": "node", "id": 3398088887, "lat": 56.9931438, "lon": 9.996316}, {"type": "node", "id": 3398088888, "lat": 56.9931564, "lon": 9.9962273}, {"type": "node", "id": 3398105395, "lat": 56.9929999, "lon": 9.9967432}, {"type": "node", "id": 3398105396, "lat": 56.9929664, "lon": 9.9970048}, {"type": "node", "id": 3398125014, "lat": 56.993597, "lon": 9.992867}, {"type": "node", "id": 3398125015, "lat": 56.993616, "lon": 9.9927262}, {"type": "node", "id": 3398125016, "lat": 56.993565, "lon": 9.9928524}, {"type": "node", "id": 3398125017, "lat": 56.9935839, "lon": 9.9927116}, {"type": "node", "id": 3398129536, "lat": 56.9948453, "lon": 9.9851292}, {"type": "node", "id": 3398133708, "lat": 56.9934963, "lon": 9.9846239}, {"type": "node", "id": 3398133709, "lat": 56.9933281, "lon": 9.9845924}, {"type": "node", "id": 3398136335, "lat": 56.9966867, "lon": 9.9861607}, {"type": "node", "id": 3398136865, "lat": 56.9971511, "lon": 9.987679}, {"type": "node", "id": 3398136870, "lat": 56.9971571, "lon": 9.987701}, {"type": "node", "id": 3398190261, "lat": 57.0241995, "lon": 9.9418562}, {"type": "node", "id": 3398190262, "lat": 57.0239457, "lon": 9.9415925}, {"type": "node", "id": 3404573233, "lat": 57.052417, "lon": 9.9087906}, {"type": "node", "id": 3404573234, "lat": 57.053805, "lon": 9.9082186}, {"type": "node", "id": 3404573235, "lat": 57.0538117, "lon": 9.9082709}, {"type": "node", "id": 3404573236, "lat": 57.0524233, "lon": 9.9088303}, {"type": "node", "id": 3404573237, "lat": 57.0531345, "lon": 9.9085429}, {"type": "node", "id": 3404573238, "lat": 57.0529468, "lon": 9.908624}, {"type": "node", "id": 3404573239, "lat": 57.0529554, "lon": 9.9087091}, {"type": "node", "id": 3404573240, "lat": 57.0531463, "lon": 9.908628}, {"type": "node", "id": 3404573242, "lat": 57.0538292, "lon": 9.9080241}, {"type": "node", "id": 3404573243, "lat": 57.0529959, "lon": 9.9083341}, {"type": "node", "id": 3404585602, "lat": 57.0538398, "lon": 9.9080186}, {"type": "node", "id": 3404585603, "lat": 57.0538454, "lon": 9.9080767}, {"type": "node", "id": 3404585604, "lat": 57.0524609, "lon": 9.9086403}, {"type": "node", "id": 3404585605, "lat": 57.0524548, "lon": 9.9085839}, {"type": "node", "id": 3404585606, "lat": 57.0531719, "lon": 9.9082924}, {"type": "node", "id": 3404585607, "lat": 57.053162, "lon": 9.9082039}, {"type": "node", "id": 3404585608, "lat": 57.053, "lon": 9.9083637}, {"type": "node", "id": 3404585609, "lat": 57.0529868, "lon": 9.9082665}, {"type": "node", "id": 3404614808, "lat": 57.0525355, "lon": 9.9087422}, {"type": "node", "id": 3404614809, "lat": 57.0525255, "lon": 9.9087944}, {"type": "node", "id": 3404614810, "lat": 57.0525731, "lon": 9.9085446}, {"type": "node", "id": 3404614811, "lat": 57.0525621, "lon": 9.9086022}, {"type": "node", "id": 3404614812, "lat": 57.0528881, "lon": 9.9084693}, {"type": "node", "id": 3404614813, "lat": 57.0528994, "lon": 9.9084085}, {"type": "node", "id": 3404614814, "lat": 57.0528602, "lon": 9.9086193}, {"type": "node", "id": 3404614815, "lat": 57.0528514, "lon": 9.9086669}, {"type": "node", "id": 3404617331, "lat": 57.0525226, "lon": 9.90856}, {"type": "node", "id": 3404617332, "lat": 57.053821, "lon": 9.9080283}, {"type": "node", "id": 3404617333, "lat": 57.0537903, "lon": 9.9082786}, {"type": "node", "id": 3404617334, "lat": 57.0524586, "lon": 9.9088206}, {"type": "node", "id": 3442949394, "lat": 57.0384892, "lon": 9.9098903}, {"type": "node", "id": 3442949395, "lat": 57.0381792, "lon": 9.9097991}, {"type": "node", "id": 3442949396, "lat": 57.0388944, "lon": 9.9103996, "tags": {"bench": "yes", "bin": "yes", "bus": "yes", "highway": "bus_stop", "name": "Sygehus Syd", "network": "Nordjyllands Trafikselskab", "network:wikidata": "Q3246599", "public_transport": "platform", "ref": "851300502", "ref_name": "Sygehus Syd (Hobrovej / Aalborg)", "shelter": "yes", "wheelchair": "yes"}}, {"type": "node", "id": 3442949397, "lat": 57.038838, "lon": 9.9103204}, {"type": "node", "id": 3442949398, "lat": 57.039058, "lon": 9.9103836}, {"type": "node", "id": 3442949400, "lat": 57.0382352, "lon": 9.9098155}, {"type": "node", "id": 3442954719, "lat": 57.0232767, "lon": 9.9043604, "tags": {"bench": "yes", "bin": "yes", "bus": "yes", "highway": "bus_stop", "lit": "yes", "name": "Mariendal M\u00f8lle", "network": "Nordjyllands Trafikselskab", "network:wikidata": "Q3246599", "public_transport": "platform", "ref": "851002802", "ref_name": "Mariendal M\u00f8lle (Hobrovej / Aalborg)", "shelter": "yes", "tactile_paving": "no"}}, {"type": "node", "id": 3443188225, "lat": 57.0249819, "lon": 9.905312, "tags": {"bench": "yes", "bin": "yes", "bus": "yes", "highway": "bus_stop", "lit": "yes", "name": "Firkl\u00f8vervej", "network": "Nordjyllands Trafikselskab", "network:wikidata": "Q3246599", "public_transport": "platform", "ref": "851002501", "ref_name": "Firkl\u00f8vervej (Hobrovej / Aalborg)", "shelter": "yes", "tactile_paving": "no"}}, {"type": "node", "id": 3443199055, "lat": 57.0228872, "lon": 9.9029509, "tags": {"bench": "no", "bin": "no", "bus": "yes", "highway": "bus_stop", "lit": "no", "name": "Over K\u00e6ret", "network": "Nordjyllands Trafikselskab", "network:wikidata": "Q3246599", "public_transport": "platform", "ref": "851002803", "ref_name": "Mariendal M\u00f8lle (Hobrovej / Aalborg)", "shelter": "no", "tactile_paving": "no"}}, {"type": "node", "id": 3443222247, "lat": 56.9851504, "lon": 9.6471814}, {"type": "node", "id": 3443222421, "lat": 57.0264078, "lon": 9.9066552, "tags": {"bench": "yes", "bin": "yes", "bus": "yes", "highway": "bus_stop", "lit": "yes", "name": "Firkl\u00f8vervej", "network": "Nordjyllands Trafikselskab", "network:wikidata": "Q3246599", "public_transport": "platform", "ref": "851002502", "ref_name": "Firkl\u00f8vervej (Hobrovej / Aalborg)", "shelter": "yes", "tactile_paving": "no"}}, {"type": "node", "id": 3443229386, "lat": 56.9852259, "lon": 9.647361}, {"type": "node", "id": 3443243957, "lat": 56.9815769, "lon": 9.6386024}, {"type": "node", "id": 3443243958, "lat": 56.981498, "lon": 9.6383919}, {"type": "node", "id": 3445049225, "lat": 56.9906462, "lon": 9.9839753}, {"type": "node", "id": 3445049226, "lat": 56.9904821, "lon": 9.9838525}, {"type": "node", "id": 3445049230, "lat": 56.9922127, "lon": 9.9846792}, {"type": "node", "id": 3445315500, "lat": 57.0862518, "lon": 9.8725598}, {"type": "node", "id": 3445315501, "lat": 57.0858308, "lon": 9.8730932}, {"type": "node", "id": 3445315502, "lat": 57.0862972, "lon": 9.8727901}, {"type": "node", "id": 3445315503, "lat": 57.0861966, "lon": 9.8729229}, {"type": "node", "id": 3464130982, "lat": 57.0672419, "lon": 9.9042715}, {"type": "node", "id": 3464130983, "lat": 57.0661265, "lon": 9.906082}, {"type": "node", "id": 3464130984, "lat": 57.0661066, "lon": 9.9060441}, {"type": "node", "id": 3464130985, "lat": 57.0672184, "lon": 9.9042246}, {"type": "node", "id": 3464130986, "lat": 57.066756, "lon": 9.9049807}, {"type": "node", "id": 3464130988, "lat": 57.0669386, "lon": 9.9046821}, {"type": "node", "id": 3464130989, "lat": 57.0669464, "lon": 9.9046986}, {"type": "node", "id": 3464175894, "lat": 57.0667337, "lon": 9.9050175}, {"type": "node", "id": 3586974414, "lat": 57.0668813, "lon": 9.9052005}, {"type": "node", "id": 3669490945, "lat": 57.0532261, "lon": 9.9123922, "tags": {"bench": "yes", "bus": "yes", "highway": "bus_stop", "name": "Vestre Kanalgade", "public_transport": "platform", "shelter": "yes"}}, {"type": "node", "id": 3683184200, "lat": 57.0038136, "lon": 9.8797495}, {"type": "node", "id": 3683184202, "lat": 57.0041758, "lon": 9.8802114}, {"type": "node", "id": 3725539917, "lat": 57.0159116, "lon": 9.9912266, "tags": {"bench": "yes", "bin": "yes", "bus": "yes", "check_date": "2024-04-20", "covered": "no", "highway": "bus_stop", "lit": "yes", "local_ref": "F", "name": "AAU Busterminal", "network": "Nordjyllands Trafikselskab", "network:wikidata": "Q3246599", "network:wikipedia": "da:Nordjyllands Trafikselskab", "public_transport": "platform", "ref": "851000302", "ref_name": "AAU Busterminal (Sigrid Undsetsvej / Aalborg)", "shelter": "yes", "tactile_paving": "no", "wheelchair": "yes"}}, {"type": "node", "id": 3725540775, "lat": 57.0159145, "lon": 9.9909904, "tags": {"bench": "yes", "bin": "no", "bus": "yes", "check_date": "2024-04-20", "covered": "no", "highway": "bus_stop", "lit": "yes", "local_ref": "C", "name": "AAU Busterminal", "network": "Nordjyllands Trafikselskab", "network:wikidata": "Q3246599", "network:wikipedia": "da:Nordjyllands Trafikselskab", "public_transport": "platform", "ref": "851000301", "ref_name": "AAU Busterminal (Sigrid Undsetsvej / Aalborg)", "shelter": "yes", "tactile_paving": "no", "wheelchair": "yes"}}, {"type": "node", "id": 3725540776, "lat": 57.0160974, "lon": 9.9910065, "tags": {"bench": "yes", "bin": "yes", "bus": "yes", "check_date": "2024-04-20", "covered": "no", "highway": "bus_stop", "lit": "yes", "local_ref": "B", "name": "AAU Busterminal", "network": "Nordjyllands Trafikselskab", "network:wikidata": "Q3246599", "network:wikipedia": "da:Nordjyllands Trafikselskab", "public_transport": "platform", "ref": "851000303", "ref_name": "AAU Busterminal (Sigrid Undsetsvej / Aalborg)", "shelter": "yes", "tactile_paving": "no", "wheelchair": "yes"}}, {"type": "node", "id": 3725540777, "lat": 57.0160963, "lon": 9.99125, "tags": {"bench": "yes", "bin": "yes", "bus": "yes", "check_date": "2024-04-20", "covered": "no", "highway": "bus_stop", "lit": "yes", "local_ref": "E", "name": "AAU Busterminal", "network": "Nordjyllands Trafikselskab", "network:wikidata": "Q3246599", "network:wikipedia": "da:Nordjyllands Trafikselskab", "public_transport": "platform", "ref": "851000304", "ref_name": "AAU Busterminal (Sigrid Undsetsvej / Aalborg)", "shelter": "yes", "tactile_paving": "no", "wheelchair": "yes"}}, {"type": "node", "id": 3725540778, "lat": 57.0162236, "lon": 9.9912402, "tags": {"bench": "no", "bin": "yes", "bus": "yes", "check_date": "2024-04-20", "covered": "no", "highway": "bus_stop", "lit": "yes", "local_ref": "D", "name": "AAU Busterminal", "network": "Nordjyllands Trafikselskab", "network:wikidata": "Q3246599", "network:wikipedia": "da:Nordjyllands Trafikselskab", "public_transport": "platform", "ref": "851000306", "ref_name": "AAU Busterminal (Sigrid Undsetsvej / Aalborg)", "shelter": "no", "tactile_paving": "no", "wheelchair": "yes"}}, {"type": "node", "id": 3725540779, "lat": 57.016363, "lon": 9.9910273, "tags": {"bench": "no", "bin": "yes", "bus": "yes", "check_date": "2024-04-20", "covered": "no", "highway": "bus_stop", "lit": "yes", "local_ref": "A", "name": "AAU Busterminal", "network": "Nordjyllands Trafikselskab", "network:wikidata": "Q3246599", "network:wikipedia": "da:Nordjyllands Trafikselskab", "public_transport": "platform", "ref": "851000305", "ref_name": "AAU Busterminal (Sigrid Undsetsvej / Aalborg)", "shelter": "no", "tactile_paving": "no", "wheelchair": "yes"}}, {"type": "node", "id": 3725573840, "lat": 57.0422823, "lon": 9.9174147}, {"type": "node", "id": 3729701025, "lat": 57.0410209, "lon": 9.9192832}, {"type": "node", "id": 3729701026, "lat": 57.0410214, "lon": 9.9192722}, {"type": "node", "id": 3729701027, "lat": 57.0410226, "lon": 9.9192917}, {"type": "node", "id": 3729701028, "lat": 57.0410294, "lon": 9.9192995}, {"type": "node", "id": 3729701029, "lat": 57.0410334, "lon": 9.9192085}, {"type": "node", "id": 3729701030, "lat": 57.0410461, "lon": 9.9191253}, {"type": "node", "id": 3729701031, "lat": 57.0410564, "lon": 9.9190408}, {"type": "node", "id": 3729701032, "lat": 57.0410658, "lon": 9.9189532}, {"type": "node", "id": 3729701035, "lat": 57.0410712, "lon": 9.918869}, {"type": "node", "id": 3729701036, "lat": 57.0410719, "lon": 9.9184344}, {"type": "node", "id": 3729701037, "lat": 57.0410744, "lon": 9.9185188}, {"type": "node", "id": 3729701038, "lat": 57.0410754, "lon": 9.9187823}, {"type": "node", "id": 3729701039, "lat": 57.0410758, "lon": 9.918607}, {"type": "node", "id": 3729701040, "lat": 57.0410759, "lon": 9.9186972}, {"type": "node", "id": 3729701041, "lat": 57.0412683, "lon": 9.9194674}, {"type": "node", "id": 3729701042, "lat": 57.0412872, "lon": 9.9193642}, {"type": "node", "id": 3729701043, "lat": 57.0413035, "lon": 9.9192602}, {"type": "node", "id": 3729701045, "lat": 57.0413172, "lon": 9.9191542}, {"type": "node", "id": 3729701046, "lat": 57.0413288, "lon": 9.9190424}, {"type": "node", "id": 3729701050, "lat": 57.0413371, "lon": 9.9189361}, {"type": "node", "id": 3729701051, "lat": 57.0413381, "lon": 9.9183817}, {"type": "node", "id": 3729701053, "lat": 57.0413428, "lon": 9.9188288}, {"type": "node", "id": 3729701054, "lat": 57.0413437, "lon": 9.9184976}, {"type": "node", "id": 3729701055, "lat": 57.0413461, "lon": 9.9186014}, {"type": "node", "id": 3729701056, "lat": 57.0413459, "lon": 9.9187183}, {"type": "node", "id": 3751611278, "lat": 56.9805155, "lon": 9.4266057, "tags": {"highway": "bus_stop", "name": "K\u00f8lby", "network": "Nordjyllands Trafikselskab", "network:wikidata": "Q3246599", "public_transport": "platform", "ref": "831000202", "ref_name": "K\u00f8lby"}}, {"type": "node", "id": 3826227829, "lat": 57.0212731, "lon": 9.8865902, "tags": {"bench": "yes", "bin": "yes", "highway": "bus_stop", "lit": "yes", "name": "Rungsvej", "network": "Nordjyllands Trafikselskab", "network:wikidata": "Q3246599", "public_transport": "platform", "ref": "851943402", "ref_name": "Rungsvej (Sofiendalsvej / Aalborg)", "shelter": "yes", "tactile_paving": "no"}}, {"type": "node", "id": 4049638393, "lat": 57.0412132, "lon": 9.9177719}, {"type": "node", "id": 4049638394, "lat": 57.0412226, "lon": 9.9178725}, {"type": "node", "id": 4049638397, "lat": 57.0415096, "lon": 9.9176576}, {"type": "node", "id": 4049698554, "lat": 57.0411857, "lon": 9.9174504}, {"type": "node", "id": 4049698555, "lat": 57.0411959, "lon": 9.9175607}, {"type": "node", "id": 4049698561, "lat": 57.0415211, "lon": 9.9173052}, {"type": "node", "id": 4049698563, "lat": 57.0419689, "lon": 9.9174586}, {"type": "node", "id": 4049698564, "lat": 57.0419818, "lon": 9.9175616}, {"type": "node", "id": 4200514774, "lat": 57.0460122, "lon": 9.9339162, "tags": {"bench": "yes", "bin": "yes", "bus": "yes", "highway": "bus_stop", "lit": "yes", "name": "Nordkraft", "network": "Nordjyllands Trafikselskab", "network:wikidata": "Q3246599", "public_transport": "platform", "ref": "851210501", "ref_name": "Nordkraft (\u00d8sterbro / Aalborg)", "shelter": "yes", "tactile_paving": "no"}}, {"type": "node", "id": 4215200371, "lat": 57.0756652, "lon": 9.9520425, "tags": {"bench": "yes", "bin": "yes", "check_date:shelter": "2025-03-05", "highway": "bus_stop", "name": "\u00d8. F\u00e6lledvej", "network": "Nordjyllands Trafikselskab", "network:wikidata": "Q3246599", "public_transport": "platform", "ref": "851803202", "ref_name": "\u00d8. F\u00e6lledvej (Hj\u00f8rringvej / N\u00f8rresundby)", "shelter": "yes"}}, {"type": "node", "id": 4331100691, "lat": 57.0002812, "lon": 9.7291317, "tags": {"highway": "bus_stop", "name": "S\u00f8nderholm Skole", "public_transport": "platform"}}, {"type": "node", "id": 4469538589, "lat": 56.835349, "lon": 9.8869421}, {"type": "node", "id": 4469538626, "lat": 56.8365346, "lon": 9.8876796}, {"type": "node", "id": 4469538653, "lat": 56.8372378, "lon": 9.8879747}, {"type": "node", "id": 4680941603, "lat": 56.891918, "lon": 9.8438937}, {"type": "node", "id": 4680941604, "lat": 56.8919628, "lon": 9.8440503}, {"type": "node", "id": 4680941605, "lat": 56.8917641, "lon": 9.8441081}, {"type": "node", "id": 4680941606, "lat": 56.8925846, "lon": 9.8438787}, {"type": "node", "id": 4680941607, "lat": 56.8917478, "lon": 9.8439398}, {"type": "node", "id": 4680941608, "lat": 56.8925682, "lon": 9.8437132}, {"type": "node", "id": 4839338674, "lat": 56.9820651, "lon": 9.6403204}, {"type": "node", "id": 4839338675, "lat": 56.982144, "lon": 9.6405309}, {"type": "node", "id": 4839345971, "lat": 56.987581, "lon": 9.6492128, "tags": {"bus": "yes", "highway": "bus_stop", "name": "J. Petersens Vej", "public_transport": "platform"}}, {"type": "node", "id": 4839345973, "lat": 56.9880431, "lon": 9.6499975, "tags": {"bus": "yes", "highway": "bus_stop", "name": "J. Petersens Vej", "public_transport": "platform"}}, {"type": "node", "id": 4844902483, "lat": 57.0552918, "lon": 9.8871998, "tags": {"fixme": "location is a guess", "highway": "bus_stop", "name": "Friluftsbadet", "network": "Nordjyllands Trafikselskab", "network:wikidata": "Q3246599", "public_transport": "platform", "ref": "851948501", "ref_name": "Friluftsbadet (Skydebanevej / Aalborg)"}}, {"type": "node", "id": 4844902484, "lat": 57.0551587, "lon": 9.8874874, "tags": {"highway": "bus_stop", "name": "Friluftsbadet", "network": "Nordjyllands Trafikselskab", "network:wikidata": "Q3246599", "public_transport": "platform", "ref": "851948502", "ref_name": "Friluftsbadet (Skydebanevej / Aalborg)", "shelter": "no"}}, {"type": "node", "id": 4844902885, "lat": 57.0556954, "lon": 9.893683, "tags": {"highway": "bus_stop", "name": "Vestre Fjordvej", "network": "Nordjyllands Trafikselskab", "network:wikidata": "Q3246599", "public_transport": "platform", "ref": "851102201", "ref_name": "Vestre Fjordvej (Kastetvej / Aalborg)", "shelter": "no"}}, {"type": "node", "id": 4844902918, "lat": 57.0556331, "lon": 9.8934759, "tags": {"highway": "bus_stop", "name": "Vestre Fjordvej", "network": "Nordjyllands Trafikselskab", "network:wikidata": "Q3246599", "public_transport": "platform", "ref": "851102202", "ref_name": "Vestre Fjordvej (Kastetvej / Aalborg)", "shelter": "yes"}}, {"type": "node", "id": 4844902943, "lat": 57.054618, "lon": 9.8991419, "tags": {"bus": "yes", "highway": "bus_stop", "name": "Haraldslund", "network": "Nordjyllands Trafikselskab", "network:wikidata": "Q3246599", "public_transport": "platform", "ref": "851203301", "ref_name": "Haraldslund (Kastetvej / Aalborg)"}}, {"type": "node", "id": 4844902971, "lat": 57.0545336, "lon": 9.8991006, "tags": {"bus": "yes", "highway": "bus_stop", "name": "Haraldslund", "network": "Nordjyllands Trafikselskab", "network:wikidata": "Q3246599", "public_transport": "platform", "ref": "851203302", "ref_name": "Haraldslund (Kastetvej / Aalborg)", "shelter": "yes"}}, {"type": "node", "id": 4873079508, "lat": 56.655797, "lon": 9.9875505, "tags": {"bench": "yes", "highway": "bus_stop", "public_transport": "platform", "shelter": "yes", "source": "Kaart Ground Survey 2017"}}, {"type": "node", "id": 4877004474, "lat": 57.0221744, "lon": 9.9646628, "tags": {"bench": "yes", "bin": "yes", "highway": "bus_stop", "public_transport": "platform"}}, {"type": "node", "id": 4945971516, "lat": 56.7688835, "lon": 9.8598929}, {"type": "node", "id": 4945976121, "lat": 56.7689368, "lon": 9.8596029}, {"type": "node", "id": 4945976124, "lat": 56.7694358, "lon": 9.8598993}, {"type": "node", "id": 4945976126, "lat": 56.7695812, "lon": 9.8599895}, {"type": "node", "id": 4945976136, "lat": 56.7687488, "lon": 9.8597266}, {"type": "node", "id": 4945976137, "lat": 56.7687416, "lon": 9.8597665}, {"type": "node", "id": 4945976138, "lat": 56.7700369, "lon": 9.8605894}, {"type": "node", "id": 4945976139, "lat": 56.7700518, "lon": 9.860504}, {"type": "node", "id": 4945976140, "lat": 56.7687794, "lon": 9.8595479}, {"type": "node", "id": 4945976141, "lat": 56.7687703, "lon": 9.859587}, {"type": "node", "id": 4945976142, "lat": 56.7702044, "lon": 9.8604387}, {"type": "node", "id": 4945976143, "lat": 56.7702185, "lon": 9.8603521}, {"type": "node", "id": 4949864665, "lat": 56.9718077, "lon": 9.8560579}, {"type": "node", "id": 4949864672, "lat": 56.971705, "lon": 9.856206}, {"type": "node", "id": 5022952661, "lat": 56.8363384, "lon": 9.8873376}, {"type": "node", "id": 5022952662, "lat": 56.8372603, "lon": 9.887753},